[{"location":"Abey Road","suburb":"COBBLEBANK","lat":-37.706033,"lon":144.6005327,"precision":"street","reasonCode":"BCD","auditDate":"Dec-2025"},{"location":"Acacia Street","suburb":"GLENROY","lat":-37.7079036,"lon":144.9245845,"precision":"street","reasonCode":"BCD","auditDate":"Jun-2026"},{"location":"Adam Street","suburb":"GOLDEN SQUARE","lat":-36.7805928,"lon":144.2703329,"precision":"street","reasonCode":"ACD","auditDate":"May-2026"},{"location":"Agar Road","suburb":"CORONET BAY","lat":-38.4534202,"lon":145.4429176,"precision":"street","reasonCode":"BC","auditDate":"T"},{"location":"Aitken Boulevard","suburb":"ROXBURGH PARK","lat":-37.60877,"lon":144.9122729,"precision":"street","reasonCode":"ABC","auditDate":"Nov-2025"},{"location":"Aitken Boulevard","suburb":"CRAIGIEBURN","lat":-37.589755,"lon":144.9110415,"precision":"street","reasonCode":"ABC","auditDate":"Jun-2026"},{"location":"Aitken Street","suburb":"ALEXANDRA","lat":-37.1878996,"lon":145.7041689,"precision":"street","reasonCode":"C","auditDate":"T"},{"location":"Albert Avenue","suburb":"BORONIA","lat":-37.8548814,"lon":145.2971857,"precision":"street","reasonCode":"C","auditDate":"Jan-2026"},{"location":"Albert Road","suburb":"WARRAGUL","lat":-38.1616645,"lon":145.9422155,"precision":"street","reasonCode":"ABC","auditDate":"July-2025"},{"location":"Albert Street","suburb":"EAST MELBOURNE","lat":-37.8107864,"lon":144.9875003,"precision":"street","reasonCode":"A","auditDate":"T"},{"location":"Alexanders Road","suburb":"MORWELL","lat":-38.2037928,"lon":146.4471231,"precision":"street","reasonCode":"BC","auditDate":"Mar-2026"},{"location":"Alexandra Street","suburb":"GREENSBOROUGH","lat":-37.7078388,"lon":145.1022812,"precision":"street","reasonCode":"BD","auditDate":"T"},{"location":"Alfred Street","suburb":"HEIDELBERG HEIGHTS","lat":-37.7515641,"lon":145.0526246,"precision":"street","reasonCode":"ABCD","auditDate":"T"},{"location":"Allan Street","suburb":"KYABRAM","lat":-36.3135089,"lon":145.0486359,"precision":"street","reasonCode":"C","auditDate":"Nov-2025"},{"location":"Allenby Avenue","suburb":"RESERVOIR","lat":-37.700387,"lon":145.004295,"precision":"street","reasonCode":"C","auditDate":"T"},{"location":"Allies Road","suburb":"MYERS FLAT","lat":-36.7163051,"lon":144.2063835,"precision":"street","reasonCode":"AC","auditDate":"May-2026"},{"location":"Allingham Street","suburb":"KANGAROO FLAT","lat":-36.7926606,"lon":144.2501767,"precision":"street","reasonCode":"BCD","auditDate":"May-2026"},{"location":"Ambrose Treacy Drive","suburb":"BUNDOORA","lat":-37.6883546,"lon":145.0682734,"precision":"street","reasonCode":"BC","auditDate":"T"},{"location":"Anderson Road","suburb":"SUNSHINE","lat":-37.7865041,"lon":144.8272126,"precision":"street","reasonCode":"ABCD","auditDate":"Dec-2025"},{"location":"Anderson Road","suburb":"FAWKNER","lat":-37.6950798,"lon":144.9621735,"precision":"street","reasonCode":"C","auditDate":"Jun-2026"},{"location":"Anderson Street","suburb":"MELBOURNE","lat":-37.7539328,"lon":145.355764,"precision":"street","reasonCode":"BCD","auditDate":"T"},{"location":"Andersons Creek Road","suburb":"DONCASTER EAST","lat":-37.7637034,"lon":145.1729333,"precision":"street","reasonCode":"ABCD","auditDate":"May-2026"},{"location":"Anzac Parade","suburb":"BANDIANA","lat":-36.1399275,"lon":146.9139677,"precision":"street","reasonCode":"C","auditDate":"T"},{"location":"Anzac Road","suburb":"TRAFALGAR","lat":-38.2109233,"lon":146.1571421,"precision":"street","reasonCode":"B","auditDate":"T"},{"location":"Apollo Road","suburb":"TAYLORS LAKES","lat":-37.7085947,"lon":144.8036732,"precision":"street","reasonCode":"BC","auditDate":"Dec-2025"},{"location":"Appin  Street","suburb":"WANGARATTA","lat":-36.3549161,"lon":146.2987235,"precision":"street","reasonCode":"C","auditDate":"Mar-2026"},{"location":"Ararat-Halls Gap Road","suburb":"POMONAL","lat":-37.1560879,"lon":142.5775674,"precision":"street","reasonCode":"ABC","auditDate":"July-2025"},{"location":"Ararat-Halls Gap Road","suburb":"JALLUKAR","lat":-37.2265795,"lon":142.7138896,"precision":"suburb","reasonCode":"AC","auditDate":"T"},{"location":"Ararat-Halls Gap Road","suburb":"MOYSTON","lat":-37.2970629,"lon":142.8221304,"precision":"street","reasonCode":"AC","auditDate":"July-2025"},{"location":"Ararat-Halls Gap Road","suburb":"HALLS GAP","lat":-37.1560879,"lon":142.5775674,"precision":"street","reasonCode":"C","auditDate":"July-2025"},{"location":"Arcadia Avenue","suburb":"THE BASIN","lat":-37.8580439,"lon":145.3048924,"precision":"street","reasonCode":"ABCD","auditDate":"Mar-2026"},{"location":"Army Road","suburb":"PAKENHAM","lat":-38.0385593,"lon":145.5028304,"precision":"street","reasonCode":"B","auditDate":"Apr-2026"},{"location":"Army Road","suburb":"PAKENHAM UPPER","lat":-38.0385593,"lon":145.5028304,"precision":"street","reasonCode":"BC","auditDate":"Apr-2026"},{"location":"Arnot Street","suburb":"BONNIE DOON","lat":-37.0238471,"lon":145.8562428,"precision":"street","reasonCode":"BCD","auditDate":"T"},{"location":"Arthur Street","suburb":"ST ALBANS","lat":-37.730993,"lon":144.809082,"precision":"street","reasonCode":"BCD","auditDate":"Dec-2025"},{"location":"Arthurs Creek Road","suburb":"ARTHURS CREEK","lat":-37.5701517,"lon":145.1768586,"precision":"street","reasonCode":"ABC","auditDate":"T"},{"location":"Arthurs Creek Road","suburb":"YAN YEAN","lat":-37.57259,"lon":145.1439427,"precision":"street","reasonCode":"AC","auditDate":"T"},{"location":"Arthurs Seat Road","suburb":"RED HILL","lat":-38.3537447,"lon":144.9518526,"precision":"street","reasonCode":"BCD","auditDate":"Dec-2025"},{"location":"Arundel Road","suburb":"KEILOR","lat":-37.7075541,"lon":144.8321273,"precision":"street","reasonCode":"C","auditDate":"Dec-2025"},{"location":"Ascot Vale Road","suburb":"ASCOT VALE","lat":-37.7770453,"lon":144.9231823,"precision":"street","reasonCode":"C","auditDate":"Nov-2025"},{"location":"Ashcroft Avenue","suburb":"WILLIAMS LANDING","lat":-37.8622981,"lon":144.7478294,"precision":"street","reasonCode":"ABCD","auditDate":"Dec-2025"},{"location":"Aspinall Street","suburb":"GOLDEN SQUARE","lat":-36.7779283,"lon":144.2431461,"precision":"street","reasonCode":"CD","auditDate":"May-2026"},{"location":"Atherton Road","suburb":"OAKLEIGH","lat":-37.9008732,"lon":145.1050837,"precision":"street","reasonCode":"ABCD","auditDate":"May-2026"},{"location":"Atkins Road","suburb":"PAKENHAM","lat":-38.0697707,"lon":145.4879782,"precision":"street","reasonCode":"B","auditDate":"Apr-2026"},{"location":"Auburn Road","suburb":"HAWTHORN","lat":-37.8302636,"lon":145.0435861,"precision":"street","reasonCode":"ABD","auditDate":"May-2026"},{"location":"Aughtie Drive","suburb":"ALBERT PARK","lat":-37.8393179,"lon":144.9634364,"precision":"street","reasonCode":"BC","auditDate":"Nov-2025"},{"location":"Avenel Road","suburb":"SEYMOUR","lat":-37.0044886,"lon":145.1557493,"precision":"street","reasonCode":"BC","auditDate":"T"},{"location":"Avenel-Nagambie Rd","suburb":"AVENEL","lat":-36.8893183,"lon":145.225018,"precision":"street","reasonCode":"C","auditDate":"T"},{"location":"Avenel-Nagambie Road","suburb":"AVENEL","lat":-36.8695948,"lon":145.1740321,"precision":"street","reasonCode":"C","auditDate":"T"},{"location":"Avenue of Honour","suburb":"WOODEND NORTH","lat":-37.3204877,"lon":144.5260957,"precision":"street","reasonCode":"ACD","auditDate":"May-2026"},{"location":"Averys Road","suburb":"EAGLEHAWK","lat":-36.7128926,"lon":144.2658096,"precision":"street","reasonCode":"ABCD","auditDate":"May-2026"},{"location":"Avondale Avenue","suburb":"ST ALBANS","lat":-37.7422866,"lon":144.8151489,"precision":"street","reasonCode":"BC","auditDate":"Dec-2025"},{"location":"Axe Creek Road","suburb":"AXE CREEK","lat":-36.8732021,"lon":144.3810929,"precision":"street","reasonCode":"C","auditDate":"May-2026"},{"location":"Baanip Boulevard","suburb":"MOUNT DUNEED","lat":-38.213234,"lon":144.3373445,"precision":"street","reasonCode":"ABCD","auditDate":"T"},{"location":"Back Beach Road","suburb":"VENTNOR","lat":-38.4967133,"lon":145.2580004,"precision":"street","reasonCode":"A","auditDate":"T"},{"location":"Back Eildon Road","suburb":"THORNTON","lat":-37.2584044,"lon":145.8513031,"precision":"street","reasonCode":"C","auditDate":"T"},{"location":"Back Porepunkah Road","suburb":"POREPUNKAH","lat":-36.7031764,"lon":146.9244117,"precision":"street","reasonCode":"ABCD","auditDate":"T"},{"location":"Bailey Street","suburb":"TIMBOON","lat":-38.4827972,"lon":142.9680191,"precision":"street","reasonCode":"BCD","auditDate":"Nov-2025"},{"location":"Bakers Road","suburb":"NOBLE PARK NORTH","lat":-37.9465686,"lon":145.1976619,"precision":"street","reasonCode":"C","auditDate":"Apr-2026"},{"location":"Balcombe Road","suburb":"BEAUMARIS","lat":-37.979763,"lon":145.0525717,"precision":"street","reasonCode":"ABC","auditDate":"May-2026"},{"location":"Balcombe Road","suburb":"MENTONE","lat":-37.9813041,"lon":145.065193,"precision":"street","reasonCode":"AC","auditDate":"Jun-2026"},{"location":"Ballan Road","suburb":"BATESFORD","lat":-38.0966604,"lon":144.3050695,"precision":"street","reasonCode":"ABC","auditDate":"T"},{"location":"Ballan-Daylesford Road","suburb":"BUNDING","lat":-37.5317194,"lon":144.1748746,"precision":"street","reasonCode":"ABC","auditDate":"Mar-2026"},{"location":"Ballan-Daylesford Road","suburb":"KORWEINGUBOORA","lat":-37.4578884,"lon":144.1394473,"precision":"street","reasonCode":"ABC","auditDate":"Mar-2026"},{"location":"Ballarat  Road","suburb":"ARDEER","lat":-37.7707512,"lon":144.7971371,"precision":"street","reasonCode":"AC","auditDate":"Dec-2025"},{"location":"Ballarat Road","suburb":"BRAYBROOK","lat":-37.7795186,"lon":144.8507186,"precision":"street","reasonCode":"A","auditDate":"Dec-2025"},{"location":"Ballarat Road","suburb":"DEER PARK","lat":-37.7666912,"lon":144.7640712,"precision":"street","reasonCode":"ABCD","auditDate":"Dec-2025"},{"location":"Ballarat Road","suburb":"ALBION","lat":-37.775211,"lon":144.8139795,"precision":"street","reasonCode":"AC","auditDate":"Dec-2025"},{"location":"Ballarat Road","suburb":"RAVENHALL","lat":-37.7565183,"lon":144.740202,"precision":"street","reasonCode":"BC","auditDate":"Dec-2025"},{"location":"Ballarat Road","suburb":"FOOTSCRAY","lat":-37.7930496,"lon":144.8956664,"precision":"street","reasonCode":"C","auditDate":"Dec-2025"},{"location":"Ballarat Road","suburb":"HAMILTON","lat":-37.7429661,"lon":142.0432841,"precision":"street","reasonCode":"C","auditDate":"Feb-2026"},{"location":"Ballarat-Maryborough Road","suburb":"DAISY HILL","lat":-37.1141326,"lon":143.7192198,"precision":"street","reasonCode":"ACD","auditDate":"Nov-2025"},{"location":"Ballarto Road","suburb":"SKYE","lat":-38.1174746,"lon":145.196484,"precision":"street","reasonCode":"ABC","auditDate":"Dec-2025"},{"location":"Balwyn Road","suburb":"BALWYN","lat":-37.8083812,"lon":145.0822033,"precision":"street","reasonCode":"C","auditDate":"May-2026"},{"location":"Bambra Road","suburb":"CAULFIELD SOUTH","lat":-37.8878769,"lon":145.0287722,"precision":"street","reasonCode":"C","auditDate":"May-2026"},{"location":"Banbury Road","suburb":"RESERVOIR","lat":-37.7074068,"lon":144.9901325,"precision":"street","reasonCode":"BCD","auditDate":"T"},{"location":"Bandiana Link Road","suburb":"WODONGA","lat":-36.109275,"lon":146.8983825,"precision":"street","reasonCode":"ABCD","auditDate":"T"},{"location":"Bank Street","suburb":"AVENEL","lat":-36.8893183,"lon":145.225018,"precision":"street","reasonCode":"C","auditDate":"T"},{"location":"Banksia Street","suburb":"HEIDELBERG HEIGHTS","lat":-37.7451831,"lon":145.0529194,"precision":"suburb","reasonCode":"BC","auditDate":"T"},{"location":"Banksia Street","suburb":"IVANHOE","lat":-37.7573434,"lon":145.0474762,"precision":"street","reasonCode":"BCD","auditDate":"T"},{"location":"Bannons Lane","suburb":"YARRAMBAT","lat":-37.6261076,"lon":145.1380355,"precision":"street","reasonCode":"AC","auditDate":"T"},{"location":"Banyule Road","suburb":"VIEWBANK","lat":-37.7385065,"lon":145.0968545,"precision":"street","reasonCode":"ABCD","auditDate":"T"},{"location":"Baranduda Boulevard","suburb":"BARANDUDA","lat":-36.1691032,"lon":146.9290183,"precision":"street","reasonCode":"ABCD","auditDate":"T"},{"location":"Baranduda Boulevard","suburb":"LENEVA","lat":-36.1691795,"lon":146.9102014,"precision":"street","reasonCode":"ABCD","auditDate":"T"},{"location":"Barkly Street","suburb":"FOOTSCRAY","lat":-37.7985741,"lon":144.8886047,"precision":"street","reasonCode":"AC","auditDate":"Dec-2025"},{"location":"Barkly Street","suburb":"ARARAT","lat":-37.2856461,"lon":142.9498311,"precision":"street","reasonCode":"BCD","auditDate":"July-2025"},{"location":"Barkly Street","suburb":"WEST FOOTSCRAY","lat":-37.7975721,"lon":144.8787887,"precision":"street","reasonCode":"C","auditDate":"Dec-2025"},{"location":"Barkly Street West","suburb":"ARARAT","lat":-37.2875168,"lon":142.9170093,"precision":"street","reasonCode":"B","auditDate":"T"},{"location":"Barmah-Shepparton Road","suburb":"ZEERUST","lat":-36.29278,"lon":145.3777006,"precision":"street","reasonCode":"AC","auditDate":"Apr-2026"},{"location":"Barmah-Shepparton Road","suburb":"BUNBARTHA","lat":-36.2787408,"lon":145.3695908,"precision":"street","reasonCode":"C","auditDate":"Apr-2026"},{"location":"Barnes Boulevard","suburb":"HORSHAM","lat":-36.7266877,"lon":142.169979,"precision":"street","reasonCode":"C","auditDate":"Jun-2025"},{"location":"Barrabool Road","suburb":"HIGHTON","lat":-38.1705941,"lon":144.317316,"precision":"street","reasonCode":"BC","auditDate":"T"},{"location":"Barrabool Road","suburb":"CERES","lat":-38.1702379,"lon":144.2395165,"precision":"street","reasonCode":"BCD","auditDate":"T"},{"location":"Barrands Lane","suburb":"DRYSDALE","lat":-38.1697916,"lon":144.5669915,"precision":"street","reasonCode":"ABCD","auditDate":"T"},{"location":"Barries Road","suburb":"MELTON","lat":-37.6891801,"lon":144.5809949,"precision":"street","reasonCode":"C","auditDate":"Dec-2025"},{"location":"Barry Road","suburb":"COOLAROO","lat":-37.6641655,"lon":144.9254249,"precision":"street","reasonCode":"ABC","auditDate":"Jun-2026"},{"location":"Barrymore Road","suburb":"GREENVALE","lat":-37.6536689,"lon":144.8856931,"precision":"street","reasonCode":"C","auditDate":"Nov-2025"},{"location":"Barwon Heads Road","suburb":"CONNEWARRE","lat":-38.2612426,"lon":144.4338774,"precision":"street","reasonCode":"ABC","auditDate":"T"},{"location":"Bass Highway","suburb":"INVERLOCH","lat":-38.6164954,"lon":145.6583977,"precision":"street","reasonCode":"ABC","auditDate":"T"},{"location":"Bass Highway","suburb":"LANG LANG SOUTH","lat":-38.166803,"lon":144.3612521,"precision":"suburb","reasonCode":"AC","auditDate":"T"},{"location":"Bass Highway","suburb":"DALYSTON","lat":-38.5727482,"lon":145.5693727,"precision":"street","reasonCode":"C","auditDate":"T"},{"location":"Bass Highway","suburb":"LEONGATHA SOUTH","lat":-38.5345433,"lon":145.8721504,"precision":"street","reasonCode":"C","auditDate":"T"},{"location":"Bass Highway","suburb":"THE GURDIES","lat":-38.3980499,"lon":145.5378391,"precision":"street","reasonCode":"C","auditDate":"T"},{"location":"Batesford Road","suburb":"MALVERN EAST","lat":-37.8762853,"lon":145.0881021,"precision":"street","reasonCode":"CD","auditDate":"Nov-2025"},{"location":"Baxter-Tooradin Road","suburb":"BAXTER","lat":-38.1984388,"lon":145.1776553,"precision":"street","reasonCode":"ABC","auditDate":"Dec-2025"},{"location":"Baxter-Tooradin Road","suburb":"PEARCEDALE","lat":-38.2018516,"lon":145.2260576,"precision":"street","reasonCode":"B","auditDate":"Apr-2026"},{"location":"Baxter-Tooradin Road","suburb":"DEVON MEADOWS","lat":-38.198567,"lon":145.3118626,"precision":"street","reasonCode":"C","auditDate":"Apr-2026"},{"location":"Bayswater Road","suburb":"CROYDON","lat":-37.8018906,"lon":145.2737159,"precision":"street","reasonCode":"C","auditDate":"Mar-2026"},{"location":"Bayview Road","suburb":"ROSEBUD","lat":-38.3734605,"lon":144.9087449,"precision":"street","reasonCode":"C","auditDate":"T"},{"location":"Beach Road","suburb":"BLACK ROCK","lat":-37.9822934,"lon":145.0205025,"precision":"street","reasonCode":"ABCD","auditDate":"May-2026"},{"location":"Beach Road","suburb":"BEAUMARIS","lat":-37.9894879,"lon":145.0447325,"precision":"street","reasonCode":"AC","auditDate":"May-2026"},{"location":"Beach Road","suburb":"SANDRINGHAM","lat":-37.9462894,"lon":145.0008889,"precision":"street","reasonCode":"ACD","auditDate":"May-2026"},{"location":"Beach Road","suburb":"MORDIALLOC","lat":-38.0086372,"lon":145.0856928,"precision":"street","reasonCode":"C","auditDate":"May-2026"},{"location":"Beach Road","suburb":"PARKDALE","lat":-37.9971199,"lon":145.0725582,"precision":"street","reasonCode":"C","auditDate":"May-2026"},{"location":"Beach Street","suburb":"FRANKSTON","lat":-38.1422661,"lon":145.130075,"precision":"street","reasonCode":"C","auditDate":"Dec-2025"},{"location":"Beacon Point Road","suburb":"CLIFTON SPRINGS","lat":-38.1493385,"lon":144.575414,"precision":"street","reasonCode":"BC","auditDate":"T"},{"location":"Beaconsfield Parade","suburb":"MIDDLE PARK","lat":-37.8562624,"lon":144.9659994,"precision":"street","reasonCode":"ABCD","auditDate":"Nov-2025"},{"location":"Beaconsfield Parade","suburb":"ALBERT PARK","lat":-37.8468033,"lon":144.9464398,"precision":"street","reasonCode":"BCD","auditDate":"Nov-2025"},{"location":"Beaconsfield-Emerald Road","suburb":"BEACONSFIELD","lat":-38.0427804,"lon":145.3675246,"precision":"street","reasonCode":"A","auditDate":"Apr-2026"},{"location":"Beaconsfield-Emerald Road","suburb":"DEWHURST","lat":-37.9742136,"lon":145.4655223,"precision":"street","reasonCode":"AC","auditDate":"Apr-2026"},{"location":"Beaufort-Skipton Road","suburb":"LAKE GOLDSMITH","lat":-37.534488,"lon":143.3884745,"precision":"suburb","reasonCode":"C","auditDate":"T"},{"location":"Beechworth Road","suburb":"WODONGA","lat":-36.1332954,"lon":146.8862962,"precision":"street","reasonCode":"ABCD","auditDate":"T"},{"location":"Beechworth-Wangaratta Road","suburb":"EVERTON UPPER","lat":-36.4005692,"lon":146.556789,"precision":"street","reasonCode":"ABCD","auditDate":"Mar-2026"},{"location":"Beechworth-Wodonga Road","suburb":"LENEVA","lat":-36.2004962,"lon":146.8933196,"precision":"street","reasonCode":"C","auditDate":"T"},{"location":"Beischer Street","suburb":"STRATHDALE","lat":-36.7574212,"lon":144.3083561,"precision":"street","reasonCode":"BC","auditDate":"May-2026"},{"location":"Belgrave Road","suburb":"MALVERN EAST","lat":-37.8844978,"lon":145.0675008,"precision":"street","reasonCode":"C","auditDate":"Nov-2025"},{"location":"Belgrave-Hallam Road","suburb":"NARRE WARREN EAST","lat":-37.9637405,"lon":145.3399135,"precision":"street","reasonCode":"ABC","auditDate":"Jun-2026"},{"location":"Belgrave-Hallam Road","suburb":"NARRE WARREN NORTH","lat":-37.9801611,"lon":145.3108327,"precision":"street","reasonCode":"B","auditDate":"Apr-2026"},{"location":"Bell Street","suburb":"HEIDELBERG WEST","lat":-37.7492873,"lon":145.0375294,"precision":"street","reasonCode":"ABCD","auditDate":"T"},{"location":"Bell Street","suburb":"COBURG","lat":-37.7400017,"lon":144.9533526,"precision":"street","reasonCode":"AC","auditDate":"Jun-2026"},{"location":"Bellarine Highway","suburb":"MOOLAP","lat":-38.1766437,"lon":144.4137113,"precision":"street","reasonCode":"AC","auditDate":"T"},{"location":"Bellarine Highway","suburb":"LEOPOLD","lat":-38.1886681,"lon":144.4627296,"precision":"street","reasonCode":"ACD","auditDate":"T"},{"location":"Bellarine Highway","suburb":"POINT LONSDALE","lat":-38.2619189,"lon":144.6109407,"precision":"street","reasonCode":"BC","auditDate":"T"},{"location":"Bellbridge Drive","suburb":"HOPPERS CROSSING","lat":-37.8748628,"lon":144.7071955,"precision":"street","reasonCode":"C","auditDate":"Dec-2025"},{"location":"Bells Avenue","suburb":"KALKALLO","lat":-37.5339358,"lon":144.9673443,"precision":"street","reasonCode":"ABC","auditDate":"Jun-2026"},{"location":"Belmore Road","suburb":"BALWYN","lat":-37.800826,"lon":145.0628008,"precision":"street","reasonCode":"C","auditDate":"May-2026"},{"location":"Belmore Road","suburb":"BOX HILL NORTH","lat":-37.8056831,"lon":145.1295748,"precision":"suburb","reasonCode":"C","auditDate":"May-2026"},{"location":"Benalla-Winton Road","suburb":"BENALLA","lat":-36.5485865,"lon":145.996894,"precision":"street","reasonCode":"BC","auditDate":"T"},{"location":"Benalla-Yarrawonga Road","suburb":"GOORAMBAT","lat":-36.3985057,"lon":145.9816372,"precision":"street","reasonCode":"ABC","auditDate":"T"},{"location":"Benalla-Yarrawonga Road","suburb":"YARRAWONGA","lat":-36.0268932,"lon":145.9958146,"precision":"street","reasonCode":"ABC","auditDate":"T"},{"location":"Benalla-Yarrawonga Road","suburb":"DEVENISH","lat":-36.3279857,"lon":145.9609665,"precision":"street","reasonCode":"C","auditDate":"T"},{"location":"Bendigo-Maldon Road","suburb":"MALDON","lat":-36.9252635,"lon":144.1335307,"precision":"street","reasonCode":"C","auditDate":"May-2026"},{"location":"Bendigo-Murchison Road","suburb":"WANALTA","lat":-36.5886878,"lon":144.9529343,"precision":"street","reasonCode":"ABC","auditDate":"Nov-2025"},{"location":"Bendigo-Murchison Road","suburb":"MURCHISON","lat":-36.6152643,"lon":145.2400955,"precision":"street","reasonCode":"BC","auditDate":"Apr-2026"},{"location":"Bendigo-Pyramid Hill Road","suburb":"RAYWOOD","lat":-36.5346745,"lon":144.2053477,"precision":"suburb","reasonCode":"ACD","auditDate":"May-2026"},{"location":"Bendigo-Pyramid Hill Road","suburb":"WOODVALE","lat":-36.654616,"lon":144.1871941,"precision":"suburb","reasonCode":"CD","auditDate":"May-2026"},{"location":"Bendigo-Redesdale Road","suburb":"STRATHFIELDSAYE","lat":-36.800724,"lon":144.3460564,"precision":"street","reasonCode":"C","auditDate":"May-2026"},{"location":"Bendigo-Sutton Grange Road","suburb":"SUTTON GRANGE","lat":-37.0241257,"lon":144.3669058,"precision":"street","reasonCode":"BCD","auditDate":"May-2026"},{"location":"Benetook Avenue","suburb":"MILDURA SOUTH","lat":-34.2095452,"lon":142.1243623,"precision":"suburb","reasonCode":"ABC","auditDate":"Dec-2025"},{"location":"Benetook Avenue","suburb":"MILDURA","lat":-34.188098,"lon":142.1887934,"precision":"street","reasonCode":"ABCD","auditDate":"Dec-2025"},{"location":"Benetook Avenue","suburb":"KOORLONG","lat":-34.2785401,"lon":142.0854268,"precision":"street","reasonCode":"C","auditDate":"Dec-2025"},{"location":"Bengworden Road","suburb":"CLYDEBANK","lat":-38.0492943,"lon":147.1665299,"precision":"street","reasonCode":"ABC","auditDate":"T"},{"location":"Bengworden Road","suburb":"BENGWORDEN","lat":-37.9502529,"lon":147.5197199,"precision":"street","reasonCode":"BCD","auditDate":"T"},{"location":"Bengworden Road","suburb":"COBAINS","lat":-38.0692526,"lon":147.0838702,"precision":"street","reasonCode":"C","auditDate":"T"},{"location":"Bengworden Road","suburb":"PERRY BRIDGE","lat":-38.020168,"lon":147.1846308,"precision":"street","reasonCode":"C","auditDate":"T"},{"location":"Bennett Street","suburb":"IRONBARK","lat":-36.7502818,"lon":144.2651879,"precision":"street","reasonCode":"CD","auditDate":"May-2026"},{"location":"Bergins Road","suburb":"ROWVILLE","lat":-37.929791,"lon":145.2337394,"precision":"street","reasonCode":"ABC","auditDate":"Mar-2026"},{"location":"Berkshire Road","suburb":"SUNSHINE NORTH","lat":-37.7644588,"lon":144.8316707,"precision":"street","reasonCode":"ABCD","auditDate":"Dec-2025"},{"location":"Berrabri Drive","suburb":"SCORESBY","lat":-37.8919763,"lon":145.2161994,"precision":"street","reasonCode":"BC","auditDate":"Mar-2026"},{"location":"Biggs Street","suburb":"ST ALBANS","lat":-37.7369301,"lon":144.801662,"precision":"street","reasonCode":"BC","auditDate":"Dec-2025"},{"location":"Birchip-Wycheproof Road","suburb":"BIRCHIP","lat":-35.9903761,"lon":142.963076,"precision":"street","reasonCode":"C","auditDate":"Nov-2025"},{"location":"Birchwood Boulevard","suburb":"HOPPERS CROSSING","lat":-37.8633572,"lon":144.7158893,"precision":"street","reasonCode":"ABCD","auditDate":"Dec-2025"},{"location":"Birregurra Forrest  Road","suburb":"BARWON DOWNS","lat":-38.4279079,"lon":143.7764636,"precision":"street","reasonCode":"AC","auditDate":"T"},{"location":"Birregurra Forrest Road","suburb":"MURROON","lat":-38.4279079,"lon":143.7764636,"precision":"street","reasonCode":"AC","auditDate":"T"},{"location":"Black Dog Drive","suburb":"BROOKFIELD","lat":-37.6942311,"lon":144.5616251,"precision":"street","reasonCode":"C","auditDate":"Dec-2025"},{"location":"Black Flat Road","suburb":"WHITTLESEA","lat":-37.50562,"lon":145.1144577,"precision":"street","reasonCode":"C","auditDate":"T"},{"location":"Black Forest Drive","suburb":"MACEDON","lat":-37.4131109,"lon":144.5429366,"precision":"street","reasonCode":"AC","auditDate":"May-2026"},{"location":"Black Forest Road","suburb":"WERRIBEE","lat":-37.8990863,"lon":144.6061513,"precision":"street","reasonCode":"C","auditDate":"Dec-2025"},{"location":"Black Forest Road","suburb":"WYNDHAM VALE","lat":-37.8997589,"lon":144.6119401,"precision":"street","reasonCode":"C","auditDate":"Dec-2025"},{"location":"Blackburn Road","suburb":"BLACKBURN SOUTH","lat":-37.8336013,"lon":145.1566512,"precision":"street","reasonCode":"ACD","auditDate":"May-2026"},{"location":"Blackburn Road","suburb":"GLEN WAVERLEY","lat":-37.8902227,"lon":145.1450963,"precision":"street","reasonCode":"C","auditDate":"May-2026"},{"location":"Blackburn Road","suburb":"MOUNT WAVERLEY","lat":-37.87345,"lon":145.1481488,"precision":"street","reasonCode":"C","auditDate":"May-2026"},{"location":"Blackgate Road","suburb":"CONNEWARRE","lat":-38.2912788,"lon":144.3671069,"precision":"street","reasonCode":"ABCD","auditDate":"T"},{"location":"Blackshaws Road","suburb":"ALTONA NORTH","lat":-37.8298986,"lon":144.8364063,"precision":"street","reasonCode":"C","auditDate":"Dec-2025"},{"location":"Blackshaws Road","suburb":"SPOTSWOOD","lat":-37.8307331,"lon":144.8858865,"precision":"suburb","reasonCode":"C","auditDate":"Dec-2025"},{"location":"Bloomfield Road","suburb":"NILMA NORTH","lat":-38.0997648,"lon":145.9709985,"precision":"street","reasonCode":"BC","auditDate":"T"},{"location":"Bluff Road","suburb":"HAMPTON","lat":-37.9324862,"lon":145.0248269,"precision":"street","reasonCode":"ABC","auditDate":"May-2026"},{"location":"Bluff Road","suburb":"SANDRINGHAM","lat":-37.9564395,"lon":145.0201366,"precision":"street","reasonCode":"ABC","auditDate":"May-2026"},{"location":"Blyth Street","suburb":"ALTONA","lat":-37.868901,"lon":144.8357117,"precision":"street","reasonCode":"BC","auditDate":"Dec-2025"},{"location":"Boardwalk Boulevard","suburb":"POINT COOK","lat":-37.9081418,"lon":144.7264299,"precision":"street","reasonCode":"ABC","auditDate":"Dec-2025"},{"location":"Bobs Street","suburb":"WHITE HILLS","lat":-36.7416431,"lon":144.2987275,"precision":"street","reasonCode":"BC","auditDate":"May-2026"},{"location":"Boes Road","suburb":"TYABB","lat":-38.2615771,"lon":145.1668763,"precision":"street","reasonCode":"BC","auditDate":"Dec-2025"},{"location":"Bogong High Plains Road","suburb":"FALLS CREEK","lat":-36.8831441,"lon":147.3103801,"precision":"street","reasonCode":"ABCD","auditDate":"T"},{"location":"Bolton Street","suburb":"ELTHAM","lat":-37.7317101,"lon":145.134892,"precision":"street","reasonCode":"ABCD","auditDate":"T"},{"location":"Boneo Road","suburb":"ROSEBUD","lat":-38.365418,"lon":144.8895919,"precision":"street","reasonCode":"C","auditDate":"T"},{"location":"Booran Road","suburb":"GLEN HUNTLY","lat":-37.8885249,"lon":145.0377308,"precision":"street","reasonCode":"C","auditDate":"May-2026"},{"location":"Boort-Kerang Road","suburb":"KERANG","lat":-35.7388211,"lon":143.8918153,"precision":"street","reasonCode":"BC","auditDate":"Nov-2025"},{"location":"Booth Street","suburb":"PRESTON","lat":-37.7402165,"lon":144.9829465,"precision":"street","reasonCode":"BCD","auditDate":"T"},{"location":"Borung Highway","suburb":"WOOROONOOK","lat":-36.2669494,"lon":143.2746126,"precision":"street","reasonCode":"AC","auditDate":"Nov-2025"},{"location":"Borung Highway","suburb":"DONALD","lat":-36.356643,"lon":142.992034,"precision":"street","reasonCode":"C","auditDate":"Nov-2025"},{"location":"Botha Avenue","suburb":"RESERVOIR","lat":-37.7011203,"lon":145.0032436,"precision":"street","reasonCode":"C","auditDate":"T"},{"location":"Boundary Road","suburb":"NEWCOMB","lat":-38.1703259,"lon":144.3842061,"precision":"street","reasonCode":"BC","auditDate":"T"},{"location":"Boundary Road","suburb":"MORDIALLOC","lat":-38.0005111,"lon":145.105194,"precision":"street","reasonCode":"C","auditDate":"Jun-2026"},{"location":"Boundary Road","suburb":"PASCOE VALE","lat":-37.7176702,"lon":144.947557,"precision":"street","reasonCode":"C","auditDate":"Jun-2026"},{"location":"Boundary Street","suburb":"KERANG","lat":-35.7347823,"lon":143.9232191,"precision":"street","reasonCode":"C","auditDate":"Nov-2025"},{"location":"Bourke Road","suburb":"CLARINDA","lat":-37.9416255,"lon":145.1061114,"precision":"street","reasonCode":"AC","auditDate":"Jun-2026"},{"location":"Bourke Street","suburb":"KYNETON","lat":-37.2553104,"lon":144.4658683,"precision":"street","reasonCode":"CD","auditDate":"May-2026"},{"location":"Bowden Street","suburb":"CASTLEMAINE","lat":-37.0662727,"lon":144.2099221,"precision":"street","reasonCode":"C","auditDate":"May-2026"},{"location":"Bowen Street","suburb":"CAMBERWELL","lat":-37.8421979,"lon":145.0628415,"precision":"street","reasonCode":"BCD","auditDate":"May-2026"},{"location":"Bowser Road","suburb":"NORTH WANGARATTA","lat":-36.3301781,"lon":146.3468295,"precision":"street","reasonCode":"CD","auditDate":"T"},{"location":"Bradford Road","suburb":"MOUNT MARTHA","lat":-38.2979563,"lon":144.984565,"precision":"street","reasonCode":"BCD","auditDate":"Dec-2025"},{"location":"Brady Road","suburb":"DANDENONG NORTH","lat":-37.95452,"lon":145.2165834,"precision":"street","reasonCode":"C","auditDate":"Apr-2026"},{"location":"Braeswood Road","suburb":"KINGS PARK","lat":-37.7277071,"lon":144.773208,"precision":"street","reasonCode":"BCD","auditDate":"Dec-2025"},{"location":"Brandy Creek Road","suburb":"WARRAGUL","lat":-38.1129169,"lon":145.9254499,"precision":"street","reasonCode":"AC","auditDate":"July-2025"},{"location":"Breadalbane Avenue","suburb":"MERNDA","lat":-37.6067437,"lon":145.088139,"precision":"street","reasonCode":"BC","auditDate":"T"},{"location":"Bree Road","suburb":"HAMILTON","lat":-37.7288861,"lon":142.0283884,"precision":"street","reasonCode":"C","auditDate":"Feb-2026"},{"location":"Bridge Inn Road","suburb":"MERNDA","lat":-37.5981689,"lon":145.0748343,"precision":"street","reasonCode":"BC","auditDate":"T"},{"location":"Bridge Street","suburb":"BENALLA","lat":-36.5549379,"lon":145.9767336,"precision":"street","reasonCode":"C","auditDate":"T"},{"location":"Bridgewater Road","suburb":"TREWALLA","lat":-38.3206183,"lon":141.5200377,"precision":"suburb","reasonCode":"C","auditDate":"T"},{"location":"Bridgewater Road","suburb":"PORTLAND","lat":-38.3404849,"lon":141.5881836,"precision":"street","reasonCode":"C","auditDate":"T"},{"location":"Bridgewater Road","suburb":"CRAIGIEBURN","lat":-37.6068155,"lon":144.9285896,"precision":"street","reasonCode":"C","auditDate":"Nov-2025"},{"location":"Bridgewater-Serpentine Road","suburb":"BRIDGEWATER","lat":-36.5084248,"lon":143.9520605,"precision":"street","reasonCode":"C","auditDate":"May-2026"},{"location":"Bridle Road","suburb":"MORWELL","lat":-38.2303617,"lon":146.4321776,"precision":"street","reasonCode":"ABCD","auditDate":"Mar-2026"},{"location":"Bright Street","suburb":"CALIFORNIA GULLY","lat":-36.7250895,"lon":144.2710927,"precision":"street","reasonCode":"BCD","auditDate":"May-2026"},{"location":"Broad Gully Road","suburb":"DIAMOND CREEK","lat":-37.6605416,"lon":145.1624443,"precision":"street","reasonCode":"BC","auditDate":"T"},{"location":"Broadford-Flowerdale Road","suburb":"STRATH CREEK","lat":-37.237187,"lon":145.2196171,"precision":"street","reasonCode":"C","auditDate":"T"},{"location":"Broadford-Kilmore Road","suburb":"BROADFORD","lat":-37.2393072,"lon":144.9922366,"precision":"street","reasonCode":"C","auditDate":"Mar-2026"},{"location":"Broadford-Kilmore Road","suburb":"KILMORE","lat":-37.2393072,"lon":144.9922366,"precision":"street","reasonCode":"C","auditDate":"Mar-2026"},{"location":"Broadford-Wandong Road","suburb":"BROADFORD","lat":-37.2423508,"lon":145.0447302,"precision":"street","reasonCode":"C","auditDate":"Mar-2026"},{"location":"Broadford-Wandong Road","suburb":"KILMORE EAST","lat":-37.2708052,"lon":145.0509516,"precision":"street","reasonCode":"C","auditDate":"Mar-2026"},{"location":"Broadhurst Avenue","suburb":"RESERVOIR","lat":-37.7083834,"lon":145.0033144,"precision":"street","reasonCode":"ABCD","auditDate":"T"},{"location":"Broadmeadows Road","suburb":"TULLAMARINE","lat":-37.7047971,"lon":144.8792085,"precision":"street","reasonCode":"C","auditDate":"Nov-2025"},{"location":"Broadmeadows Road Deviation","suburb":"WESTMEADOWS","lat":-37.6811818,"lon":144.8845641,"precision":"street","reasonCode":"BC","auditDate":"Nov-2025"},{"location":"Broadway","suburb":"RESERVOIR","lat":-37.7172499,"lon":145.0124863,"precision":"street","reasonCode":"AC","auditDate":"T"},{"location":"Broadway","suburb":"DUNOLLY","lat":-36.8592878,"lon":143.7314501,"precision":"street","reasonCode":"BCD","auditDate":"May-2026"},{"location":"Brodie Street","suburb":"WANGARATTA","lat":-36.3497834,"lon":146.3027863,"precision":"street","reasonCode":"BC","auditDate":"T"},{"location":"Broken River Drive","suburb":"SHEPPARTON","lat":-36.4054553,"lon":145.4000149,"precision":"street","reasonCode":"ABC","auditDate":"Apr-2026"},{"location":"Bromley Road","suburb":"ROBINVALE","lat":-34.5824478,"lon":142.7699033,"precision":"street","reasonCode":"C","auditDate":"Nov-2025"},{"location":"Brooke Street","suburb":"TOWONG","lat":-36.1237401,"lon":147.9915492,"precision":"street","reasonCode":"C","auditDate":"T"},{"location":"Brooklyn Road","suburb":"BROOKFIELD","lat":-37.7012118,"lon":144.5602969,"precision":"street","reasonCode":"ABCD","auditDate":"Dec-2025"},{"location":"Brossard Road","suburb":"MICKLEHAM","lat":-37.558274,"lon":144.8826104,"precision":"street","reasonCode":"ABC","auditDate":"Jun-2026"},{"location":"Brown Road","suburb":"PAKENHAM","lat":-38.0434571,"lon":145.4386547,"precision":"street","reasonCode":"B","auditDate":"Apr-2026"},{"location":"Browning Street","suburb":"ORBOST","lat":-37.7077356,"lon":148.4563787,"precision":"street","reasonCode":"BC","auditDate":"T"},{"location":"Browning Street","suburb":"KINGSBURY","lat":-37.7184464,"lon":145.0341671,"precision":"street","reasonCode":"BCD","auditDate":"T"},{"location":"Browning Street","suburb":"PORTLAND","lat":-38.3284591,"lon":141.5925925,"precision":"street","reasonCode":"C","auditDate":"T"},{"location":"Browns Road","suburb":"BOTANIC RIDGE","lat":-38.1488765,"lon":145.2550631,"precision":"street","reasonCode":"B","auditDate":"Apr-2026"},{"location":"Browns Road","suburb":"NOBLE PARK","lat":-37.9536953,"lon":145.1794424,"precision":"street","reasonCode":"C","auditDate":"Apr-2026"},{"location":"Browns Road","suburb":"NOBLE PARK NORTH","lat":-37.9485652,"lon":145.1874477,"precision":"street","reasonCode":"C","auditDate":"Apr-2026"},{"location":"Brunswick Road","suburb":"BRUNSWICK","lat":-37.7782891,"lon":144.9702689,"precision":"street","reasonCode":"C","auditDate":"Jun-2026"},{"location":"Bruthen-Nowa Nowa Road","suburb":"BRUTHEN","lat":-37.7183192,"lon":147.8414068,"precision":"street","reasonCode":"AC","auditDate":"Sep-2025"},{"location":"Bruthen-Nowa Nowa Road","suburb":"NOWA NOWA","lat":-37.7228371,"lon":148.0847811,"precision":"street","reasonCode":"C","auditDate":"T"},{"location":"Buckley Street","suburb":"KEILOR EAST","lat":-37.7509077,"lon":144.8628682,"precision":"street","reasonCode":"BC","auditDate":"Jun-2026"},{"location":"Buckley Street","suburb":"ESSENDON","lat":-37.7577259,"lon":144.9238591,"precision":"street","reasonCode":"C","auditDate":"Jun-2026"},{"location":"Buckley Street","suburb":"ESSENDON WEST","lat":-37.753397,"lon":144.8844523,"precision":"street","reasonCode":"C","auditDate":"Jun-2026"},{"location":"Bulban Road","suburb":"WERRIBEE","lat":-37.9140996,"lon":144.6162688,"precision":"street","reasonCode":"ABCD","auditDate":"Dec-2025"},{"location":"Bulla Road","suburb":"BULLA","lat":-37.6405217,"lon":144.8139168,"precision":"street","reasonCode":"ABC","auditDate":"Nov-2025"},{"location":"Bulla Road","suburb":"STRATHMORE","lat":-37.7386012,"lon":144.9066112,"precision":"street","reasonCode":"ABCD","auditDate":"Jun-2026"},{"location":"Bulleen Road","suburb":"BALWYN NORTH","lat":-37.7809557,"lon":145.0786204,"precision":"street","reasonCode":"C","auditDate":"May-2026"},{"location":"Bulmans Road","suburb":"MELTON WEST","lat":-37.6735216,"lon":144.5518411,"precision":"street","reasonCode":"C","auditDate":"Dec-2025"},{"location":"Bungower Road","suburb":"SOMERVILLE","lat":-38.2385191,"lon":145.1895993,"precision":"street","reasonCode":"ABC","auditDate":"Dec-2025"},{"location":"Bungower Road","suburb":"MOOROODUC","lat":-38.2334569,"lon":145.1390399,"precision":"street","reasonCode":"BCD","auditDate":"Dec-2025"},{"location":"Burke Road","suburb":"GLEN IRIS","lat":-37.8585362,"lon":145.0514859,"precision":"street","reasonCode":"C","auditDate":"Nov-2025"},{"location":"Burke Road","suburb":"MALVERN EAST","lat":-37.8761295,"lon":145.0481478,"precision":"street","reasonCode":"C","auditDate":"Nov-2025"},{"location":"Burns Street","suburb":"MARYBOROUGH","lat":-37.050975,"lon":143.739345,"precision":"street","reasonCode":"BCD","auditDate":"May-2026"},{"location":"Burns Street","suburb":"HAMILTON","lat":-37.7390197,"lon":142.0145886,"precision":"street","reasonCode":"C","auditDate":"Feb-2026"},{"location":"Burton Avenue","suburb":"KYNETON","lat":-37.2386281,"lon":144.4249102,"precision":"street","reasonCode":"ACD","auditDate":"May-2026"},{"location":"Burwood Highway","suburb":"KNOXFIELD","lat":-37.8736627,"lon":145.2492842,"precision":"street","reasonCode":"ABC","auditDate":"Mar-2026"},{"location":"Burwood Highway","suburb":"WANTIRNA","lat":-37.8601622,"lon":145.2086718,"precision":"street","reasonCode":"AC","auditDate":"Mar-2026"},{"location":"Butcher Street","suburb":"ECHUCA","lat":-36.133335,"lon":144.7331909,"precision":"street","reasonCode":"BCD","auditDate":"Nov-2025"},{"location":"Butterworth Street","suburb":"SWAN HILL","lat":-35.3339494,"lon":143.5322642,"precision":"street","reasonCode":"ABCD","auditDate":"Nov-2025"},{"location":"Buxton Marysville Road","suburb":"MARYSVILLE","lat":-37.4731783,"lon":145.7430531,"precision":"street","reasonCode":"ACD","auditDate":"T"},{"location":"Cairns Road","suburb":"HAMPTON PARK","lat":-38.0396655,"lon":145.2598733,"precision":"street","reasonCode":"BC","auditDate":"Apr-2026"},{"location":"Calder Alternative Highway","suburb":"LOCKWOOD","lat":-36.8064562,"lon":144.1593956,"precision":"street","reasonCode":"AC","auditDate":"May-2026"},{"location":"CALDER ALTERNATIVE Highway","suburb":"RAVENSWOOD","lat":-36.8818374,"lon":144.2096668,"precision":"street","reasonCode":"ACD","auditDate":"May-2026"},{"location":"Calder Alternative Highway","suburb":"MARONG","lat":-36.7425097,"lon":144.1298791,"precision":"street","reasonCode":"C","auditDate":"May-2026"},{"location":"Calder Freeway","suburb":"KEILOR EAST","lat":-37.7266512,"lon":144.8556182,"precision":"street","reasonCode":"ABCD","auditDate":"Oct-2025"},{"location":"Calder Freeway","suburb":"KEILOR PARK","lat":-37.7261442,"lon":144.8531285,"precision":"street","reasonCode":"ABCD","auditDate":"Oct-2025"},{"location":"Calder Freeway","suburb":"KEILOR","lat":-37.704613,"lon":144.8153293,"precision":"street","reasonCode":"ABCD","auditDate":"Feb-2026"},{"location":"Calder Freeway","suburb":"ELPHINSTONE","lat":-37.0818539,"lon":144.3188366,"precision":"street","reasonCode":"ACD","auditDate":"Nov-2025"},{"location":"Calder Freeway","suburb":"RAVENSWOOD SOUTH","lat":-36.9565128,"lon":144.236453,"precision":"street","reasonCode":"ACD","auditDate":"Nov-2025"},{"location":"Calder Freeway","suburb":"CARLSRUHE","lat":-37.3015274,"lon":144.5107517,"precision":"street","reasonCode":"ACD","auditDate":"May-2026"},{"location":"Calder Freeway","suburb":"FARADAY","lat":-37.0281725,"lon":144.2727966,"precision":"street","reasonCode":"ACD","auditDate":"May-2026"},{"location":"Calder Freeway","suburb":"GISBORNE SOUTH","lat":-37.5337874,"lon":144.6363479,"precision":"street","reasonCode":"ACD","auditDate":"May-2026"},{"location":"Calder Freeway","suburb":"KYNETON","lat":-37.2476076,"lon":144.4718948,"precision":"street","reasonCode":"ACD","auditDate":"May-2026"},{"location":"Calder Freeway","suburb":"MACEDON","lat":-37.3829117,"lon":144.5500121,"precision":"street","reasonCode":"ACD","auditDate":"May-2026"},{"location":"Calder Freeway","suburb":"MALMSBURY","lat":-37.156817,"lon":144.3993421,"precision":"street","reasonCode":"ACD","auditDate":"May-2026"},{"location":"Calder Freeway","suburb":"TARADALE","lat":-37.1418636,"lon":144.3899182,"precision":"street","reasonCode":"ACD","auditDate":"May-2026"},{"location":"Calder Freeway","suburb":"KEILOR NORTH","lat":-37.6746263,"lon":144.7688653,"precision":"street","reasonCode":"BCD","auditDate":"Dec-2025"},{"location":"Calder Highway","suburb":"SEA LAKE","lat":-35.4561116,"lon":142.8294637,"precision":"street","reasonCode":"A","auditDate":"Nov-2025"},{"location":"Calder Highway","suburb":"OUYEN","lat":-35.0718467,"lon":142.3190021,"precision":"street","reasonCode":"ABC","auditDate":"Dec-2025"},{"location":"Calder Highway","suburb":"RED CLIFFS","lat":-34.3518216,"lon":142.186574,"precision":"street","reasonCode":"ABCD","auditDate":"Dec-2025"},{"location":"Calder Highway","suburb":"YATPOOL","lat":-34.3581983,"lon":142.2144347,"precision":"suburb","reasonCode":"ABCD","auditDate":"Dec-2025"},{"location":"Calder Highway","suburb":"BERRIWILLOCK","lat":-35.6375242,"lon":142.998309,"precision":"street","reasonCode":"ABCD","auditDate":"Mar-2026"},{"location":"Calder Highway","suburb":"CHARLTON","lat":-36.2916292,"lon":143.423315,"precision":"street","reasonCode":"ABCD","auditDate":"Mar-2026"},{"location":"Calder Highway","suburb":"BIRDWOODTON","lat":-34.1997342,"lon":142.0864739,"precision":"street","reasonCode":"AC","auditDate":"Dec-2025"},{"location":"Calder Highway","suburb":"HATTAH","lat":-34.8991833,"lon":142.3027233,"precision":"street","reasonCode":"AC","auditDate":"Dec-2025"},{"location":"Calder Highway","suburb":"RAVENSWOOD SOUTH","lat":-36.9421652,"lon":144.2300413,"precision":"street","reasonCode":"ACD","auditDate":"Nov-2025"},{"location":"Calder Highway","suburb":"MAIDEN GULLY","lat":-36.7582182,"lon":144.2243789,"precision":"street","reasonCode":"ACD","auditDate":"May-2026"},{"location":"Calder Highway","suburb":"RAVENSWOOD","lat":-36.8620805,"lon":144.2219536,"precision":"street","reasonCode":"ACD","auditDate":"May-2026"},{"location":"Calder Highway","suburb":"NULLAWIL","lat":-35.8223346,"lon":143.1488218,"precision":"street","reasonCode":"BC","auditDate":"Nov-2025"},{"location":"Calder Highway","suburb":"CULGOA","lat":-35.7172658,"lon":143.0995662,"precision":"street","reasonCode":"C","auditDate":"Nov-2025"},{"location":"Calder Highway","suburb":"DUMOSA","lat":-35.9361308,"lon":143.2268388,"precision":"street","reasonCode":"C","auditDate":"Nov-2025"},{"location":"Calder Highway","suburb":"NANDALY","lat":-35.2307612,"lon":142.6917665,"precision":"street","reasonCode":"C","auditDate":"Nov-2025"},{"location":"Calder Highway","suburb":"NINDA","lat":-35.4561116,"lon":142.8294637,"precision":"street","reasonCode":"C","auditDate":"Nov-2025"},{"location":"Calder Highway","suburb":"TEDDYWADDY","lat":-36.2173856,"lon":143.3642862,"precision":"street","reasonCode":"C","auditDate":"Nov-2025"},{"location":"Calder Highway","suburb":"WARNE","lat":-35.786083,"lon":143.1280596,"precision":"street","reasonCode":"C","auditDate":"Nov-2025"},{"location":"Calder Highway","suburb":"WOOSANG","lat":-36.2916292,"lon":143.423315,"precision":"street","reasonCode":"C","auditDate":"Nov-2025"},{"location":"Calder Highway","suburb":"WYCHEPROOF SOUTH","lat":-36.1322565,"lon":143.234098,"precision":"street","reasonCode":"C","auditDate":"Nov-2025"},{"location":"Calder Highway","suburb":"CABARITA","lat":-34.1997342,"lon":142.0864739,"precision":"street","reasonCode":"C","auditDate":"Dec-2025"},{"location":"Calder Highway","suburb":"MERBEIN","lat":-34.1759196,"lon":142.0585623,"precision":"street","reasonCode":"C","auditDate":"Dec-2025"},{"location":"Calder Highway","suburb":"MERBEIN WEST","lat":-34.1670378,"lon":142.0062733,"precision":"suburb","reasonCode":"C","auditDate":"Dec-2025"},{"location":"Calder Highway","suburb":"MITTYACK","lat":-35.2307612,"lon":142.6917665,"precision":"street","reasonCode":"C","auditDate":"Dec-2025"},{"location":"Calder Highway","suburb":"YELTA","lat":-34.1219521,"lon":141.9912939,"precision":"street","reasonCode":"C","auditDate":"Dec-2025"},{"location":"Calder Highway","suburb":"BRIDGEWATER ON LODDON","lat":-36.59898,"lon":143.9365591,"precision":"street","reasonCode":"C","auditDate":"May-2026"},{"location":"Calder Highway","suburb":"GLENALBYN","lat":-36.4851381,"lon":143.7124677,"precision":"street","reasonCode":"C","auditDate":"May-2026"},{"location":"Calder Highway","suburb":"KURTING","lat":-36.5387782,"lon":143.8102803,"precision":"street","reasonCode":"C","auditDate":"May-2026"},{"location":"Calder Highway","suburb":"LEICHARDT","lat":-36.7087582,"lon":144.1029081,"precision":"street","reasonCode":"C","auditDate":"May-2026"},{"location":"Calder Highway","suburb":"MARONG","lat":-36.7359385,"lon":144.1338961,"precision":"street","reasonCode":"C","auditDate":"May-2026"},{"location":"Calder Highway","suburb":"KANGAROO FLAT","lat":-36.8181644,"lon":144.2383844,"precision":"street","reasonCode":"CD","auditDate":"May-2026"},{"location":"Calder Park Drive","suburb":"SYDENHAM","lat":-37.6981218,"lon":144.7556135,"precision":"street","reasonCode":"ABC","auditDate":"Dec-2025"},{"location":"Calder Park Drive","suburb":"TAYLORS HILL","lat":-37.7219908,"lon":144.7506384,"precision":"street","reasonCode":"BC","auditDate":"Dec-2025"},{"location":"Caldwells Road","suburb":"EAGLEHAWK","lat":-36.7172572,"lon":144.2466007,"precision":"street","reasonCode":"BCD","auditDate":"May-2026"},{"location":"Caledonia Street","suburb":"ST ANDREWS","lat":-37.5996312,"lon":145.2753155,"precision":"street","reasonCode":"BCD","auditDate":"T"},{"location":"Callaghan Street","suburb":"EPSOM","lat":-36.7140686,"lon":144.2899151,"precision":"street","reasonCode":"BCD","auditDate":"May-2026"},{"location":"Calvert Street","suburb":"BAIRNSDALE","lat":-37.8329458,"lon":147.5995897,"precision":"street","reasonCode":"C","auditDate":"T"},{"location":"Cambden Park Parade","suburb":"FERNTREE GULLY","lat":-37.8822644,"lon":145.2607104,"precision":"street","reasonCode":"BC","auditDate":"Mar-2026"},{"location":"Camelot Drive","suburb":"GLEN WAVERLEY","lat":-37.866971,"lon":145.1810335,"precision":"street","reasonCode":"C","auditDate":"May-2026"},{"location":"Cameron Parade","suburb":"BUNDOORA","lat":-37.6983534,"lon":145.0636053,"precision":"street","reasonCode":"ABC","auditDate":"T"},{"location":"Camp Road","suburb":"BROADMEADOWS","lat":-37.6854143,"lon":144.9210183,"precision":"street","reasonCode":"AC","auditDate":"Nov-2025"},{"location":"Campaspe Esplanade","suburb":"ECHUCA","lat":-36.1335949,"lon":144.7375232,"precision":"street","reasonCode":"CD","auditDate":"Nov-2025"},{"location":"Campbell Street","suburb":"ARARAT","lat":-37.2774292,"lon":142.9393657,"precision":"street","reasonCode":"B","auditDate":"T"},{"location":"Campbell Street","suburb":"SWAN HILL","lat":-35.3445785,"lon":143.5610392,"precision":"street","reasonCode":"BCD","auditDate":"Mar-2026"},{"location":"Camperdown-Cobden Road","suburb":"CAMPERDOWN","lat":-38.2804339,"lon":143.1213428,"precision":"street","reasonCode":"ABCD","auditDate":"Oct-2025"},{"location":"Canterbury Road","suburb":"MIDDLE PARK","lat":-37.8493287,"lon":144.9648443,"precision":"street","reasonCode":"ABCD","auditDate":"Nov-2025"},{"location":"Canterbury Road","suburb":"BAYSWATER NORTH","lat":-37.8321634,"lon":145.2693182,"precision":"street","reasonCode":"AC","auditDate":"Mar-2026"},{"location":"Canterbury Road","suburb":"VERMONT","lat":-37.8362101,"lon":145.1941805,"precision":"street","reasonCode":"ACD","auditDate":"Mar-2026"},{"location":"Canterbury Road","suburb":"MONTROSE","lat":-37.8152692,"lon":145.3271867,"precision":"street","reasonCode":"BC","auditDate":"Jun-2026"},{"location":"Canterbury Road","suburb":"BLACKBURN SOUTH","lat":-37.8316045,"lon":145.1458271,"precision":"street","reasonCode":"C","auditDate":"May-2026"},{"location":"Canterbury Road","suburb":"BOX HILL","lat":-37.8300212,"lon":145.1329154,"precision":"street","reasonCode":"C","auditDate":"May-2026"},{"location":"Cape Nelson Road","suburb":"PORTLAND","lat":-38.3656875,"lon":141.5995129,"precision":"street","reasonCode":"C","auditDate":"T"},{"location":"Cape Otway Road","suburb":"BIRREGURRA","lat":-38.3466565,"lon":143.8052381,"precision":"street","reasonCode":"ABC","auditDate":"T"},{"location":"Carnarvon Road","suburb":"STRATHMORE","lat":-37.7413712,"lon":144.9103354,"precision":"street","reasonCode":"C","auditDate":"Jun-2026"},{"location":"Carngham Road","suburb":"BUNKERS HILL","lat":-37.5648984,"lon":143.7677272,"precision":"street","reasonCode":"C","auditDate":"T"},{"location":"Carngham Road","suburb":"HADDON","lat":-37.558113,"lon":143.6963881,"precision":"street","reasonCode":"C","auditDate":"T"},{"location":"Carpenter Street","suburb":"QUARRY HILL","lat":-36.7725884,"lon":144.2856202,"precision":"street","reasonCode":"ABCD","auditDate":"May-2026"},{"location":"Carpenter Street","suburb":"SPRING GULLY","lat":-36.7882613,"lon":144.2833733,"precision":"street","reasonCode":"BCD","auditDate":"May-2026"},{"location":"Carrick Drive","suburb":"GLADSTONE PARK","lat":-37.6976106,"lon":144.8907936,"precision":"street","reasonCode":"ABC","auditDate":"Nov-2025"},{"location":"Carroll Road","suburb":"OAKLEIGH SOUTH","lat":-37.9290684,"lon":145.0944741,"precision":"street","reasonCode":"C","auditDate":"May-2026"},{"location":"Castlemaine-Maldon Road","suburb":"MUCKLEFORD","lat":-37.0570542,"lon":144.1648361,"precision":"street","reasonCode":"C","auditDate":"May-2026"},{"location":"Centenary  Avenue","suburb":"MELTON","lat":-37.6761062,"lon":144.5959203,"precision":"street","reasonCode":"C","auditDate":"Dec-2025"},{"location":"Centenary Avenue","suburb":"MELTON WEST","lat":-37.6729629,"lon":144.5700433,"precision":"street","reasonCode":"B","auditDate":"Dec-2025"},{"location":"Centenary Avenue","suburb":"MELTON","lat":-37.6734331,"lon":144.5738571,"precision":"street","reasonCode":"C","auditDate":"Dec-2025"},{"location":"Centenary Drive","suburb":"MILL PARK","lat":-37.6584769,"lon":145.0687932,"precision":"street","reasonCode":"AC","auditDate":"T"},{"location":"Central Avenue","suburb":"ALTONA MEADOWS","lat":-37.8702266,"lon":144.7606183,"precision":"street","reasonCode":"BCD","auditDate":"Dec-2025"},{"location":"Central Park Road","suburb":"MALVERN EAST","lat":-37.8680139,"lon":145.0417388,"precision":"street","reasonCode":"BCD","auditDate":"Nov-2025"},{"location":"Central Road","suburb":"NUNAWADING","lat":-37.824712,"lon":145.1670117,"precision":"street","reasonCode":"C","auditDate":"May-2026"},{"location":"Centre Dandenong Road","suburb":"MOORABBIN AIRPORT","lat":-37.9723372,"lon":145.111534,"precision":"street","reasonCode":"AC","auditDate":"May-2026"},{"location":"Centre Dandenong Road","suburb":"CHELTENHAM","lat":-37.9676564,"lon":145.0738162,"precision":"street","reasonCode":"C","auditDate":"May-2026"},{"location":"Centre Road","suburb":"BENTLEIGH EAST","lat":-37.9239369,"lon":145.0819598,"precision":"street","reasonCode":"AC","auditDate":"May-2026"},{"location":"Centre Road","suburb":"OAKLEIGH SOUTH","lat":-37.9245163,"lon":145.0864856,"precision":"street","reasonCode":"AC","auditDate":"May-2026"},{"location":"Centre Road","suburb":"LANGWARRIN","lat":-38.1582568,"lon":145.2084666,"precision":"street","reasonCode":"C","auditDate":"T"},{"location":"Centre Road","suburb":"BENTLEIGH","lat":-37.9183797,"lon":145.0382278,"precision":"street","reasonCode":"C","auditDate":"May-2026"},{"location":"Chadstone Road","suburb":"MALVERN EAST","lat":-37.8864159,"lon":145.0783815,"precision":"street","reasonCode":"C","auditDate":"Nov-2025"},{"location":"Champion Road","suburb":"NEWPORT","lat":-37.8483011,"lon":144.873409,"precision":"street","reasonCode":"C","auditDate":"Dec-2025"},{"location":"Champions Parade","suburb":"WOLLERT","lat":-37.6225713,"lon":145.0247593,"precision":"street","reasonCode":"BCD","auditDate":"T"},{"location":"Chandler Road","suburb":"KEYSBOROUGH","lat":-38.0008648,"lon":145.1806394,"precision":"street","reasonCode":"BC","auditDate":"Apr-2026"},{"location":"Channel Road","suburb":"SHEPPARTON","lat":-36.4070559,"lon":145.4180872,"precision":"street","reasonCode":"ABCD","auditDate":"Apr-2026"},{"location":"Chapel Road","suburb":"KEYSBOROUGH","lat":-37.9966871,"lon":145.1624161,"precision":"street","reasonCode":"BC","auditDate":"Apr-2026"},{"location":"Chapel Street","suburb":"SOUTH YARRA","lat":-37.8404521,"lon":144.995426,"precision":"street","reasonCode":"ACD","auditDate":"Nov-2025"},{"location":"Chapple Street","suburb":"WODONGA","lat":-36.1239151,"lon":146.9034899,"precision":"street","reasonCode":"ABCD","auditDate":"T"},{"location":"Charlton-St Arnaud Road","suburb":"ST ARNAUD","lat":-36.5451509,"lon":143.2988989,"precision":"street","reasonCode":"C","auditDate":"Jun-2025"},{"location":"Chauncey Street","suburb":"LANCEFIELD","lat":-37.27915,"lon":144.7242053,"precision":"street","reasonCode":"C","auditDate":"May-2026"},{"location":"Cheddar Road West","suburb":"RESERVOIR","lat":-37.7025213,"lon":145.0176664,"precision":"street","reasonCode":"BCD","auditDate":"T"},{"location":"Chenery Street","suburb":"MANSFIELD","lat":-37.0537237,"lon":146.0925911,"precision":"street","reasonCode":"C","auditDate":"T"},{"location":"Cherry Tree Road","suburb":"PANTON HILL","lat":-37.6425403,"lon":145.2211446,"precision":"street","reasonCode":"AC","auditDate":"T"},{"location":"Chesterville Road","suburb":"CHELTENHAM NORTH","lat":-37.9589802,"lon":145.0674022,"precision":"suburb","reasonCode":"C","auditDate":"May-2026"},{"location":"Chifley Drive","suburb":"PRESTON","lat":-37.7432968,"lon":145.0305721,"precision":"street","reasonCode":"BCD","auditDate":"T"},{"location":"Childers Street","suburb":"PORTLAND","lat":-38.3699858,"lon":141.6090662,"precision":"street","reasonCode":"C","auditDate":"T"},{"location":"Childs Road","suburb":"LALOR","lat":-37.6608441,"lon":145.0302287,"precision":"street","reasonCode":"ABCD","auditDate":"T"},{"location":"Childs Road","suburb":"MILL PARK","lat":-37.6623095,"lon":145.0449161,"precision":"street","reasonCode":"ABCD","auditDate":"T"},{"location":"Chisholm Street","suburb":"BALLARAT","lat":-37.5491256,"lon":143.8756619,"precision":"street","reasonCode":"C","auditDate":"T"},{"location":"Christensen Lane","suburb":"WANGARATTA","lat":-36.3415584,"lon":146.2869015,"precision":"street","reasonCode":"BC","auditDate":"T"},{"location":"Christies Road","suburb":"LEOPOLD","lat":-38.1778931,"lon":144.4762315,"precision":"street","reasonCode":"AC","auditDate":"T"},{"location":"Chum Creek Road","suburb":"HEALESVILLE","lat":-37.6453843,"lon":145.497963,"precision":"street","reasonCode":"ABCD","auditDate":"Jun-2026"},{"location":"Chum Street","suburb":"GOLDEN SQUARE","lat":-36.762462,"lon":144.2578323,"precision":"street","reasonCode":"BCD","auditDate":"May-2026"},{"location":"Church Road","suburb":"NYAH","lat":-35.1747555,"lon":143.3847838,"precision":"street","reasonCode":"C","auditDate":"Nov-2025"},{"location":"Church Street","suburb":"GROVEDALE","lat":-38.1962823,"lon":144.3291134,"precision":"street","reasonCode":"BC","auditDate":"T"},{"location":"Church Street","suburb":"RICHMOND","lat":-37.8341639,"lon":144.9966058,"precision":"street","reasonCode":"BCD","auditDate":"T"},{"location":"Church Street","suburb":"KANGAROO FLAT","lat":-36.802167,"lon":144.2440995,"precision":"street","reasonCode":"CD","auditDate":"May-2026"},{"location":"Churchill-Traralgon Road","suburb":"TRARALGON","lat":-38.2098703,"lon":146.5202789,"precision":"street","reasonCode":"AC","auditDate":"Mar-2026"},{"location":"Cimberwood Drive","suburb":"CRAIGIEBURN","lat":-37.5953774,"lon":144.9262104,"precision":"street","reasonCode":"C","auditDate":"Nov-2025"},{"location":"Civic Parade","suburb":"ALTONA","lat":-37.8644226,"lon":144.830839,"precision":"street","reasonCode":"C","auditDate":"Dec-2025"},{"location":"Claremont Avenue","suburb":"MALVERN","lat":-37.8669947,"lon":145.0386319,"precision":"street","reasonCode":"BCD","auditDate":"Nov-2025"},{"location":"Clarendon Street","suburb":"EAST MELBOURNE","lat":-37.8094564,"lon":144.983631,"precision":"street","reasonCode":"AD","auditDate":"T"},{"location":"Claret Ash Boulevard","suburb":"HARKNESS","lat":-37.6658759,"lon":144.5410998,"precision":"street","reasonCode":"BD","auditDate":"Nov-2025"},{"location":"Clarinda Road","suburb":"CLARINDA","lat":-37.9442662,"lon":145.097235,"precision":"street","reasonCode":"AC","auditDate":"Jun-2026"},{"location":"Clarke Road","suburb":"SPRINGVALE SOUTH","lat":-37.9695581,"lon":145.1415296,"precision":"street","reasonCode":"C","auditDate":"Apr-2026"},{"location":"Clarkes Road","suburb":"BROOKFIELD","lat":-37.7009472,"lon":144.5464398,"precision":"street","reasonCode":"BC","auditDate":"Dec-2025"},{"location":"Clayton Road","suburb":"CLAYTON","lat":-37.9096849,"lon":145.122616,"precision":"street","reasonCode":"C","auditDate":"May-2026"},{"location":"Clifton Avenue","suburb":"STAWELL","lat":-37.0546473,"lon":142.7711359,"precision":"street","reasonCode":"BCD","auditDate":"July-2025"},{"location":"Clifton Springs Road","suburb":"CLIFTON SPRINGS","lat":-38.1677624,"lon":144.5717988,"precision":"street","reasonCode":"BC","auditDate":"T"},{"location":"Clyde Road","suburb":"BERWICK","lat":-38.0655446,"lon":145.3372939,"precision":"street","reasonCode":"BC","auditDate":"Apr-2026"},{"location":"Clyde-Five Ways Road","suburb":"CLYDE","lat":-38.1456955,"lon":145.3217046,"precision":"street","reasonCode":"BC","auditDate":"Apr-2026"},{"location":"Coates Road","suburb":"LAKES ENTRANCE","lat":-37.8741926,"lon":148.0056336,"precision":"street","reasonCode":"AC","auditDate":"Sep-2025"},{"location":"Coburns Road","suburb":"KURUNJANG","lat":-37.6554469,"lon":144.5737614,"precision":"street","reasonCode":"BCD","auditDate":"Dec-2025"},{"location":"Coburns Road","suburb":"MELTON","lat":-37.6834565,"lon":144.5684537,"precision":"street","reasonCode":"BCD","auditDate":"Dec-2025"},{"location":"Coburns Road","suburb":"MELTON SOUTH","lat":-37.7032319,"lon":144.564679,"precision":"street","reasonCode":"BCD","auditDate":"Dec-2025"},{"location":"Coburns Road","suburb":"TOOLERN VALE","lat":-37.6347177,"lon":144.5733739,"precision":"street","reasonCode":"C","auditDate":"Dec-2025"},{"location":"Cohuna Island Road","suburb":"COHUNA","lat":-35.8094595,"lon":144.2229754,"precision":"street","reasonCode":"C","auditDate":"Nov-2025"},{"location":"Cohuna-Koondrook Road","suburb":"KOONDROOK","lat":-35.6689258,"lon":144.1148401,"precision":"street","reasonCode":"C","auditDate":"Nov-2025"},{"location":"Cohuna-Leitchville Road","suburb":"LEITCHVILLE","lat":-35.804716,"lon":144.2279172,"precision":"street","reasonCode":"BC","auditDate":"Nov-2025"},{"location":"Colac Forrest Road","suburb":"YEODENE","lat":-38.4034829,"lon":143.7074674,"precision":"suburb","reasonCode":"AC","auditDate":"T"},{"location":"Colac-Ballarat  Road","suburb":"WEERING","lat":-38.0975627,"lon":143.703903,"precision":"suburb","reasonCode":"BC","auditDate":"T"},{"location":"Colac-Ballarat Road","suburb":"CAMBRIAN HILL","lat":-37.6286362,"lon":143.8305357,"precision":"street","reasonCode":"ABCD","auditDate":"T"},{"location":"Colac-Ballarat Road","suburb":"BEEAC","lat":-38.1320587,"lon":143.6287425,"precision":"street","reasonCode":"BC","auditDate":"T"},{"location":"Colac-Ballarat Road","suburb":"CORINDHAP","lat":-37.8886049,"lon":143.722846,"precision":"street","reasonCode":"BCD","auditDate":"Apr-2026"},{"location":"Colac-Ballarat Road","suburb":"NAPOLEONS","lat":-37.6545208,"lon":143.8254459,"precision":"street","reasonCode":"BCD","auditDate":"Apr-2026"},{"location":"Colac-Lavers Hill Road","suburb":"BARONGAROOK","lat":-38.4456688,"lon":143.5694318,"precision":"street","reasonCode":"C","auditDate":"T"},{"location":"Coleraine-Balmoral Road","suburb":"BALMORAL","lat":-37.2505462,"lon":141.8338315,"precision":"street","reasonCode":"C","auditDate":"Feb-2026"},{"location":"Commercial Road","suburb":"MORWELL","lat":-38.2390586,"lon":146.4038462,"precision":"street","reasonCode":"ABC","auditDate":"Mar-2026"},{"location":"Condon Street","suburb":"KENNINGTON","lat":-36.7704262,"lon":144.2991252,"precision":"street","reasonCode":"BCD","auditDate":"May-2026"},{"location":"Coolart Road","suburb":"BITTERN","lat":-38.3530049,"lon":145.1457056,"precision":"street","reasonCode":"BC","auditDate":"Dec-2025"},{"location":"Coombes Road","suburb":"TORQUAY","lat":-38.3138984,"lon":144.3095974,"precision":"street","reasonCode":"BC","auditDate":"T"},{"location":"Copelands Road","suburb":"WARRAGUL","lat":-38.129697,"lon":145.9654815,"precision":"street","reasonCode":"BCD","auditDate":"T"},{"location":"Copernicus Way","suburb":"KEILOR DOWNS","lat":-37.7238895,"lon":144.8060142,"precision":"street","reasonCode":"BCD","auditDate":"Dec-2025"},{"location":"Coppards Road","suburb":"MOOLAP","lat":-38.1661398,"lon":144.4039189,"precision":"street","reasonCode":"BC","auditDate":"T"},{"location":"Coppards Road","suburb":"NEWCOMB","lat":-38.1725805,"lon":144.402661,"precision":"street","reasonCode":"C","auditDate":"T"},{"location":"Copperfield Drive","suburb":"DELAHEY","lat":-37.7222323,"lon":144.7685117,"precision":"street","reasonCode":"BC","auditDate":"Dec-2025"},{"location":"Cornwall Road","suburb":"SUNSHINE","lat":-37.7873711,"lon":144.8410997,"precision":"street","reasonCode":"ABC","auditDate":"Dec-2025"},{"location":"Coronation Avenue","suburb":"SWAN HILL","lat":-35.3524493,"lon":143.5534434,"precision":"street","reasonCode":"C","auditDate":"Nov-2025"},{"location":"Corrigan Road","suburb":"KEYSBOROUGH","lat":-37.9924157,"lon":145.162998,"precision":"street","reasonCode":"C","auditDate":"Apr-2026"},{"location":"Corrigan Road","suburb":"NOBLE PARK","lat":-37.9478589,"lon":145.1722727,"precision":"street","reasonCode":"C","auditDate":"Apr-2026"},{"location":"Coulstock Street","suburb":"WARRNAMBOOL","lat":-38.3817735,"lon":142.4954873,"precision":"street","reasonCode":"C","auditDate":"Sep-2025"},{"location":"Cowra Avenue","suburb":"MILDURA","lat":-34.2059195,"lon":142.1769952,"precision":"street","reasonCode":"ABC","auditDate":"Dec-2025"},{"location":"Cox Road","suburb":"NORLANE","lat":-38.083851,"lon":144.3559373,"precision":"street","reasonCode":"AC","auditDate":"T"},{"location":"Craig Road","suburb":"CRANBOURNE SOUTH","lat":-38.1536008,"lon":145.29123,"precision":"street","reasonCode":"B","auditDate":"Apr-2026"},{"location":"Craig Road","suburb":"DEVON MEADOWS","lat":-38.1768941,"lon":145.2866751,"precision":"street","reasonCode":"B","auditDate":"Apr-2026"},{"location":"Craigie Road","suburb":"MOUNT MARTHA","lat":-38.2540106,"lon":145.0263424,"precision":"street","reasonCode":"C","auditDate":"T"},{"location":"Craigieburn Road","suburb":"WOLLERT","lat":-37.6027376,"lon":144.9719889,"precision":"street","reasonCode":"AC","auditDate":"T"},{"location":"Craigieburn Road","suburb":"CRAIGIEBURN","lat":-37.5914159,"lon":144.8925215,"precision":"street","reasonCode":"C","auditDate":"Nov-2025"},{"location":"Cramer Street","suburb":"WARRNAMBOOL","lat":-38.3752301,"lon":142.5006327,"precision":"street","reasonCode":"C","auditDate":"Sep-2025"},{"location":"Cranbourne-Frankston Road","suburb":"LANGWARRIN","lat":-38.1557185,"lon":145.1747371,"precision":"street","reasonCode":"ABC","auditDate":"T"},{"location":"CRANE Street","suburb":"JACKASS FLAT","lat":-36.7248373,"lon":144.2880963,"precision":"street","reasonCode":"ACD","auditDate":"May-2026"},{"location":"Cravens Road","suburb":"MERNDA","lat":-37.6060763,"lon":145.0808273,"precision":"street","reasonCode":"BCD","auditDate":"T"},{"location":"Creswick Road","suburb":"BALLARAT","lat":-37.5538164,"lon":143.85298,"precision":"street","reasonCode":"C","auditDate":"T"},{"location":"Creswick-Newstead Road","suburb":"CAMPBELLTOWN","lat":-37.1988998,"lon":144.00575,"precision":"street","reasonCode":"ABCD","auditDate":"T"},{"location":"Creswick-Newstead Road","suburb":"NEWSTEAD","lat":-37.1381253,"lon":144.041937,"precision":"street","reasonCode":"C","auditDate":"May-2026"},{"location":"Crook Street","suburb":"KENNINGTON","lat":-36.7699933,"lon":144.3100691,"precision":"street","reasonCode":"BCD","auditDate":"May-2026"},{"location":"Crusoe Road","suburb":"KANGAROO FLAT","lat":-36.8144247,"lon":144.2317256,"precision":"street","reasonCode":"ABCD","auditDate":"May-2026"},{"location":"Cumberland Road","suburb":"PASCOE VALE","lat":-37.719932,"lon":144.9403601,"precision":"street","reasonCode":"ABCD","auditDate":"Jun-2026"},{"location":"Cureton Avenue","suburb":"MILDURA","lat":-34.1618001,"lon":142.1614949,"precision":"street","reasonCode":"AC","auditDate":"Dec-2025"},{"location":"Curlewis Road","suburb":"CURLEWIS","lat":-38.1883127,"lon":144.5115481,"precision":"street","reasonCode":"C","auditDate":"T"},{"location":"Curlewis Street","suburb":"SWAN HILL","lat":-35.3342437,"lon":143.5594532,"precision":"street","reasonCode":"BCD","auditDate":"Mar-2026"},{"location":"Curtin Street","suburb":"FLORA HILL","lat":-36.7761488,"lon":144.2951036,"precision":"street","reasonCode":"BCD","auditDate":"May-2026"},{"location":"Cuthbert Avenue","suburb":"TRUGANINA","lat":-37.8575334,"lon":144.7244472,"precision":"street","reasonCode":"ABCD","auditDate":"Dec-2025"},{"location":"Cuthberts Road","suburb":"LUCAS","lat":-37.5520426,"lon":143.7851295,"precision":"street","reasonCode":"ABCD","auditDate":"T"},{"location":"Da Vinci Drive","suburb":"SHEPPARTON","lat":-36.4059183,"lon":145.4177456,"precision":"street","reasonCode":"ABCD","auditDate":"Apr-2026"},{"location":"Dalmore Road","suburb":"KOO WEE RUP","lat":-38.1990553,"lon":145.492854,"precision":"suburb","reasonCode":"BC","auditDate":"Apr-2026"},{"location":"Dalrymple Road","suburb":"SUNBURY","lat":-37.5332404,"lon":144.6704361,"precision":"street","reasonCode":"C","auditDate":"Jun-2026"},{"location":"Dalton Road","suburb":"LALOR","lat":-37.6633744,"lon":145.0320124,"precision":"street","reasonCode":"BCD","auditDate":"T"},{"location":"Dandenong Bypass","suburb":"DANDENONG SOUTH","lat":-38.0047943,"lon":145.2211685,"precision":"street","reasonCode":"BC","auditDate":"Apr-2026"},{"location":"Dandenong Road","suburb":"PRAHRAN","lat":-37.8593861,"lon":145.0052743,"precision":"street","reasonCode":"ABCD","auditDate":"Nov-2025"},{"location":"Dandenong Road","suburb":"WINDSOR","lat":-37.8558814,"lon":144.9858145,"precision":"street","reasonCode":"ABCD","auditDate":"Nov-2025"},{"location":"Dandenong Road East","suburb":"FRANKSTON","lat":-38.13166,"lon":145.1312626,"precision":"street","reasonCode":"ABC","auditDate":"Dec-2025"},{"location":"Dandenong-Hastings Road","suburb":"CRANBOURNE","lat":-38.1275484,"lon":145.229601,"precision":"street","reasonCode":"C","auditDate":"Apr-2026"},{"location":"Danks Street","suburb":"MIDDLE PARK","lat":-37.8511942,"lon":144.9590481,"precision":"street","reasonCode":"ABCD","auditDate":"Nov-2025"},{"location":"Darebin Road","suburb":"THORNBURY","lat":-37.7636032,"lon":145.0030219,"precision":"street","reasonCode":"BCD","auditDate":"T"},{"location":"Dargo road","suburb":"LINDENOW","lat":-37.7894424,"lon":147.3852264,"precision":"street","reasonCode":"C","auditDate":"T"},{"location":"Darian Road","suburb":"TORQUAY","lat":-38.322591,"lon":144.3212268,"precision":"street","reasonCode":"BC","auditDate":"T"},{"location":"Darling Road","suburb":"MALVERN EAST","lat":-37.8734319,"lon":145.0600331,"precision":"street","reasonCode":"C","auditDate":"Nov-2025"},{"location":"Darlington Road","suburb":"STAWELL","lat":-37.0527228,"lon":142.7806748,"precision":"street","reasonCode":"C","auditDate":"Jun-2025"},{"location":"Dartmoor-Hamilton Road","suburb":"YULECART","lat":-37.763153,"lon":141.8951262,"precision":"street","reasonCode":"ABC","auditDate":"Feb-2026"},{"location":"Dartmoor-Hamilton Road","suburb":"HAMILTON","lat":-37.7446852,"lon":141.9861136,"precision":"street","reasonCode":"C","auditDate":"Feb-2026"},{"location":"Davisson Street","suburb":"EPPING","lat":-37.649585,"lon":145.0298777,"precision":"street","reasonCode":"C","auditDate":"T"},{"location":"Daylesford-Malmsbury Road","suburb":"DENVER","lat":-37.2891209,"lon":144.268901,"precision":"street","reasonCode":"ABCD","auditDate":"Mar-2026"},{"location":"Dead Horse Lane","suburb":"MANSFIELD","lat":-37.0439489,"lon":146.0945044,"precision":"street","reasonCode":"BCD","auditDate":"T"},{"location":"Deakin Avenue","suburb":"MILDURA","lat":-34.1986264,"lon":142.1464734,"precision":"street","reasonCode":"ABC","auditDate":"Dec-2025"},{"location":"Deep Creek Road","suburb":"MITCHAM","lat":-37.8165178,"lon":145.2077553,"precision":"street","reasonCode":"BC","auditDate":"May-2026"},{"location":"Delatite Road","suburb":"SEYMOUR","lat":-37.026919,"lon":145.1571843,"precision":"street","reasonCode":"C","auditDate":"T"},{"location":"Delta Road","suburb":"GREENSBOROUGH","lat":-37.7142675,"lon":145.0933722,"precision":"street","reasonCode":"ABCD","auditDate":"T"},{"location":"Dendy Street","suburb":"BRIGHTON","lat":-37.9207865,"lon":145.0052739,"precision":"street","reasonCode":"A","auditDate":"May-2026"},{"location":"Dendy Street","suburb":"BRIGHTON EAST","lat":-37.9219501,"lon":145.0152799,"precision":"street","reasonCode":"ABC","auditDate":"May-2026"},{"location":"Derby Street","suburb":"PASCOE VALE","lat":-37.7210661,"lon":144.9475881,"precision":"street","reasonCode":"C","auditDate":"Jun-2026"},{"location":"Derrimut Road","suburb":"HOPPERS CROSSING","lat":-37.8692232,"lon":144.6843527,"precision":"street","reasonCode":"C","auditDate":"Dec-2025"},{"location":"Devon Road","suburb":"PASCOE VALE","lat":-37.7219121,"lon":144.9271739,"precision":"street","reasonCode":"C","auditDate":"Jun-2026"},{"location":"Devonshire Road","suburb":"SUNSHINE","lat":-37.7851506,"lon":144.8346046,"precision":"street","reasonCode":"BCD","auditDate":"Dec-2025"},{"location":"Diamond Creek Road","suburb":"GREENSBOROUGH","lat":-37.6899727,"lon":145.1137867,"precision":"street","reasonCode":"BCD","auditDate":"T"},{"location":"Diggers Rest Coimadai Road","suburb":"TOOLERN VALE","lat":-37.6132411,"lon":144.5593918,"precision":"street","reasonCode":"ABCD","auditDate":"Jan-2026"},{"location":"Diggers Rest-Coimadai Road","suburb":"COIMADAI","lat":-37.6180167,"lon":144.5066912,"precision":"street","reasonCode":"ABCD","auditDate":"Mar-2026"},{"location":"Diggers Rest-Coimadai Road","suburb":"DIGGERS REST","lat":-37.6243596,"lon":144.6591482,"precision":"street","reasonCode":"BCD","auditDate":"Dec-2025"},{"location":"Diggers Rest-Coimadai Road","suburb":"TOOLERN VALE","lat":-37.6088314,"lon":144.590167,"precision":"street","reasonCode":"BCD","auditDate":"Jan-2026"},{"location":"Dinah Parade","suburb":"KEILOR EAST","lat":-37.7443278,"lon":144.8677328,"precision":"street","reasonCode":"C","auditDate":"Jun-2026"},{"location":"Dingley Bypass","suburb":"HEATHERTON","lat":-37.9592533,"lon":145.111341,"precision":"street","reasonCode":"AC","auditDate":"May-2026"},{"location":"Doctors Gully Road","suburb":"DOREEN","lat":-37.6119233,"lon":145.1662178,"precision":"street","reasonCode":"AC","auditDate":"T"},{"location":"Don Road","suburb":"BADGER CREEK","lat":-37.6805256,"lon":145.5442531,"precision":"street","reasonCode":"AC","auditDate":"Jun-2026"},{"location":"Donald Cameron Drive","suburb":"ROXBURGH PARK","lat":-37.6314914,"lon":144.9246011,"precision":"street","reasonCode":"C","auditDate":"Nov-2025"},{"location":"Donald-Swan Hill Road","suburb":"KALPIENUNG","lat":-35.8797907,"lon":143.2974051,"precision":"street","reasonCode":"C","auditDate":"Nov-2025"},{"location":"Donald-Swan Hill Road","suburb":"LALBERT","lat":-35.675779,"lon":143.3749748,"precision":"street","reasonCode":"C","auditDate":"Nov-2025"},{"location":"Donald-Swan Hill Road","suburb":"SWAN HILL","lat":-35.3871462,"lon":143.5650212,"precision":"street","reasonCode":"C","auditDate":"Nov-2025"},{"location":"Donnybrook Road","suburb":"MICKLEHAM","lat":-37.5379187,"lon":144.9229014,"precision":"street","reasonCode":"ABC","auditDate":"Nov-2025"},{"location":"Donnybrook Road","suburb":"YAN YEAN","lat":-37.5578064,"lon":145.1093798,"precision":"street","reasonCode":"C","auditDate":"T"},{"location":"Dorset Road","suburb":"CROYDON","lat":-37.7788246,"lon":145.2939649,"precision":"street","reasonCode":"ABC","auditDate":"Mar-2026"},{"location":"Douglas Parade","suburb":"NEWPORT","lat":-37.8502241,"lon":144.8941418,"precision":"street","reasonCode":"C","auditDate":"Dec-2025"},{"location":"Doveton Street North","suburb":"INVERMAY PARK","lat":-37.5328858,"lon":143.8604383,"precision":"street","reasonCode":"BC","auditDate":"T"},{"location":"Doveton Street North","suburb":"BALLARAT NORTH","lat":-37.5381131,"lon":143.8594418,"precision":"street","reasonCode":"BCD","auditDate":"T"},{"location":"Downes Road","suburb":"CASTLEMAINE","lat":-37.0556748,"lon":144.2153409,"precision":"street","reasonCode":"C","auditDate":"May-2026"},{"location":"Drage Road","suburb":"WODONGA","lat":-36.1152787,"lon":146.840494,"precision":"street","reasonCode":"AC","auditDate":"T"},{"location":"Driscolls Road","suburb":"KEALBA","lat":-37.7317003,"lon":144.8229913,"precision":"street","reasonCode":"BC","auditDate":"Dec-2025"},{"location":"Dromana Parade","suburb":"SAFETY BEACH","lat":-38.3283109,"lon":144.9772778,"precision":"street","reasonCode":"ABCD","auditDate":"T"},{"location":"Drummond Street South","suburb":"BALLARAT","lat":-37.5681956,"lon":143.8460926,"precision":"street","reasonCode":"C","auditDate":"T"},{"location":"Drysdale-Ocean Grove Road","suburb":"WALLINGTON","lat":-38.2282851,"lon":144.5414262,"precision":"street","reasonCode":"BC","auditDate":"T"},{"location":"Duff Street","suburb":"CRANBOURNE WEST","lat":-38.101137,"lon":145.246727,"precision":"street","reasonCode":"B","auditDate":"Apr-2026"},{"location":"Duke Street","suburb":"SUNSHINE","lat":-37.7917294,"lon":144.8451003,"precision":"street","reasonCode":"ABCD","auditDate":"Dec-2025"},{"location":"Dunblane Road","suburb":"NOBLE PARK","lat":-37.9610953,"lon":145.180746,"precision":"street","reasonCode":"BC","auditDate":"Apr-2026"},{"location":"Duncan Drive","suburb":"PAKENHAM","lat":-38.0767734,"lon":145.4702496,"precision":"street","reasonCode":"BC","auditDate":"Apr-2026"},{"location":"Duncans Road","suburb":"WERRIBEE","lat":-37.9017203,"lon":144.6626621,"precision":"street","reasonCode":"C","auditDate":"Dec-2025"},{"location":"Dundas Road","suburb":"MARYBOROUGH","lat":-37.0363189,"lon":143.7353951,"precision":"street","reasonCode":"BCD","auditDate":"Nov-2025"},{"location":"Dundas Street","suburb":"PRESTON","lat":-37.753506,"lon":145.0122981,"precision":"street","reasonCode":"ABC","auditDate":"T"},{"location":"Dundas Street","suburb":"RYE","lat":-38.3705323,"lon":144.8192088,"precision":"street","reasonCode":"C","auditDate":"Dec-2025"},{"location":"Dunkeld-Cavendish Road","suburb":"MOUTAJUP","lat":-37.6478733,"lon":142.2889831,"precision":"street","reasonCode":"AC","auditDate":"Feb-2026"},{"location":"Dunne Street","suburb":"KINGSBURY","lat":-37.7166676,"lon":145.0426247,"precision":"street","reasonCode":"ABC","auditDate":"T"},{"location":"Dunns Creek Road","suburb":"DROMANA","lat":-38.3321635,"lon":145.0091234,"precision":"street","reasonCode":"ABC","auditDate":"Dec-2025"},{"location":"Dwyer Street","suburb":"KALKALLO","lat":-37.5271962,"lon":144.9570187,"precision":"street","reasonCode":"ABCD","auditDate":"Jun-2026"},{"location":"Dynon Road","suburb":"WEST MELBOURNE","lat":-37.8044794,"lon":144.9347114,"precision":"street","reasonCode":"ABCD","auditDate":"T"},{"location":"Eaglehawk Road","suburb":"CALIFORNIA GULLY","lat":-36.7320275,"lon":144.2572713,"precision":"street","reasonCode":"CD","auditDate":"May-2026"},{"location":"Eaglehawk Road","suburb":"LONG GULLY","lat":-36.7505698,"lon":144.2590583,"precision":"street","reasonCode":"CD","auditDate":"May-2026"},{"location":"East Boundary Road","suburb":"BENTLEIGH EAST","lat":-37.9174801,"lon":145.0599286,"precision":"street","reasonCode":"C","auditDate":"May-2026"},{"location":"East Esplanade","suburb":"ST ALBANS","lat":-37.735918,"lon":144.7962298,"precision":"street","reasonCode":"BCD","auditDate":"Dec-2025"},{"location":"East Street","suburb":"HADFIELD","lat":-37.7046923,"lon":144.9511731,"precision":"street","reasonCode":"BC","auditDate":"Jun-2026"},{"location":"Eastbourne Road","suburb":"ROSEBUD","lat":-38.3676602,"lon":144.8985109,"precision":"street","reasonCode":"ABC","auditDate":"Dec-2025"},{"location":"Eastfield Road","suburb":"CROYDON","lat":-37.8098407,"lon":145.2640106,"precision":"street","reasonCode":"BCD","auditDate":"Mar-2026"},{"location":"Eaststone Avenue","suburb":"WOLLERT","lat":-37.6171822,"lon":145.0009748,"precision":"street","reasonCode":"BCD","auditDate":"T"},{"location":"Echuca-Kyabram Road","suburb":"ECHUCA","lat":-36.1443587,"lon":144.7651432,"precision":"street","reasonCode":"CD","auditDate":"Nov-2025"},{"location":"Echuca-Mooroopna Road","suburb":"MOOROOPNA NORTH","lat":-36.3250746,"lon":145.3015497,"precision":"suburb","reasonCode":"BC","auditDate":"Apr-2026"},{"location":"Echuca-Mooroopna Road","suburb":"UNDERA","lat":-36.2735774,"lon":145.2152188,"precision":"street","reasonCode":"BC","auditDate":"Apr-2026"},{"location":"Echuca-Mooroopna Road","suburb":"ST GERMAINS","lat":-36.2488771,"lon":145.1726745,"precision":"street","reasonCode":"C","auditDate":"Apr-2026"},{"location":"Echuca-Nanneella Road","suburb":"NANNEELLA","lat":-36.3207111,"lon":144.7774324,"precision":"street","reasonCode":"BCD","auditDate":"Nov-2025"},{"location":"Edenvale Boulevard","suburb":"WOLLERT","lat":-37.6174322,"lon":145.0152725,"precision":"street","reasonCode":"BCD","auditDate":"T"},{"location":"Edgar Street","suburb":"PORTLAND","lat":-38.3630094,"lon":141.5945396,"precision":"street","reasonCode":"C","auditDate":"T"},{"location":"Edgars Road","suburb":"LALOR","lat":-37.6631854,"lon":145.0056984,"precision":"street","reasonCode":"ABCD","auditDate":"T"},{"location":"Edgars Road","suburb":"EPPING","lat":-37.6303173,"lon":145.0059806,"precision":"street","reasonCode":"BC","auditDate":"T"},{"location":"Edgars Road","suburb":"WOLLERT","lat":-37.6130814,"lon":145.006487,"precision":"street","reasonCode":"BCD","auditDate":"T"},{"location":"Edward Road","suburb":"CHIRNSIDE PARK","lat":-37.750374,"lon":145.3176106,"precision":"street","reasonCode":"ABC","auditDate":"Jun-2026"},{"location":"Edwardes Street","suburb":"RESERVOIR","lat":-37.715723,"lon":145.0005171,"precision":"street","reasonCode":"BCD","auditDate":"T"},{"location":"Edwards Road","suburb":"JACKASS FLAT","lat":-36.7210845,"lon":144.2823309,"precision":"street","reasonCode":"ABCD","auditDate":"May-2026"},{"location":"Edwards Road","suburb":"MAIDEN GULLY","lat":-36.7532901,"lon":144.2175063,"precision":"street","reasonCode":"ACD","auditDate":"May-2026"},{"location":"Edwards Road","suburb":"MARONG","lat":-36.7678745,"lon":144.1654903,"precision":"street","reasonCode":"ACD","auditDate":"May-2026"},{"location":"Eighth Street","suburb":"MILDURA","lat":-34.184572,"lon":142.1620978,"precision":"street","reasonCode":"C","auditDate":"Dec-2025"},{"location":"Eildon-Jamieson Road","suburb":"EILDON","lat":-37.3653517,"lon":146.0050313,"precision":"street","reasonCode":"C","auditDate":"T"},{"location":"Eildon-Jamieson Road","suburb":"JAMIESON","lat":-37.2871781,"lon":146.1387561,"precision":"street","reasonCode":"C","auditDate":"T"},{"location":"Elcho Road","suburb":"LARA","lat":-38.0253287,"lon":144.3659119,"precision":"street","reasonCode":"BC","auditDate":"T"},{"location":"Elder Street","suburb":"WATSONIA","lat":-37.7138988,"lon":145.0891996,"precision":"street","reasonCode":"BC","auditDate":"T"},{"location":"Elevation Boulevard","suburb":"CRAIGIEBURN","lat":-37.5992437,"lon":144.8951472,"precision":"street","reasonCode":"ABC","auditDate":"Jun-2026"},{"location":"Eleventh Street","suburb":"IRYMPLE","lat":-34.2151118,"lon":142.1879556,"precision":"street","reasonCode":"ABCD","auditDate":"Dec-2025"},{"location":"Eleventh Street","suburb":"MILDURA","lat":-34.2052584,"lon":142.1761769,"precision":"street","reasonCode":"AC","auditDate":"Dec-2025"},{"location":"Elgar Road","suburb":"BOX HILL SOUTH","lat":-37.8405145,"lon":145.1106223,"precision":"street","reasonCode":"C","auditDate":"May-2026"},{"location":"Elgar Road","suburb":"BURWOOD","lat":-37.8462963,"lon":145.1095953,"precision":"street","reasonCode":"C","auditDate":"May-2026"},{"location":"Elizabeth Drive","suburb":"SUNBURY","lat":-37.5714981,"lon":144.7184571,"precision":"street","reasonCode":"BC","auditDate":"Nov-2025"},{"location":"Elizabeth Street","suburb":"COBURG","lat":-37.740077,"lon":144.9809864,"precision":"street","reasonCode":"ABC","auditDate":"T"},{"location":"Elizabeth Street","suburb":"ARARAT","lat":-37.2905172,"lon":142.9253334,"precision":"street","reasonCode":"BC","auditDate":"Jun-2025"},{"location":"Elizabeth Street","suburb":"EDENHOPE","lat":-37.0362239,"lon":141.3034712,"precision":"street","reasonCode":"C","auditDate":"Jun-2025"},{"location":"Ellscott Boulevard","suburb":"MICKLEHAM","lat":-37.5358955,"lon":144.8985877,"precision":"street","reasonCode":"ABC","auditDate":"Jun-2026"},{"location":"Eltham-Yarra Glen Road","suburb":"KANGAROO GROUND","lat":-37.6954017,"lon":145.2148983,"precision":"street","reasonCode":"ABCD","auditDate":"T"},{"location":"Eltham-Yarra Glen Road","suburb":"CHRISTMAS HILLS","lat":-37.6639011,"lon":145.2681205,"precision":"street","reasonCode":"AC","auditDate":"T"},{"location":"Eltham-Yarra Glen Road","suburb":"WATSONS CREEK","lat":-37.6639011,"lon":145.2681205,"precision":"street","reasonCode":"B","auditDate":"T"},{"location":"Elvins Street","suburb":"MANSFIELD","lat":-37.0541789,"lon":146.0799545,"precision":"street","reasonCode":"BCD","auditDate":"T"},{"location":"Elwers Road","suburb":"ROSEBUD","lat":-38.3576236,"lon":144.9183696,"precision":"street","reasonCode":"BCD","auditDate":"Dec-2025"},{"location":"Emu Creek Road","suburb":"STRATHFIELDSAYE","lat":-36.8230948,"lon":144.3558981,"precision":"street","reasonCode":"AC","auditDate":"May-2026"},{"location":"Emu Road","suburb":"MAIDSTONE","lat":-37.7796496,"lon":144.8798403,"precision":"street","reasonCode":"BC","auditDate":"Dec-2025"},{"location":"Epping Road","suburb":"WOLLERT","lat":-37.6101325,"lon":145.031473,"precision":"street","reasonCode":"ABCD","auditDate":"T"},{"location":"Epping Road","suburb":"WOODSTOCK","lat":-37.5495736,"lon":145.0306175,"precision":"street","reasonCode":"C","auditDate":"T"},{"location":"Epsom Road","suburb":"ASCOT VALE","lat":-37.7833654,"lon":144.917448,"precision":"street","reasonCode":"C","auditDate":"Jun-2026"},{"location":"Epsom-Barnadown Road","suburb":"ASCOT","lat":-36.6974811,"lon":144.3418127,"precision":"street","reasonCode":"BC","auditDate":"May-2026"},{"location":"Eramosa Road East","suburb":"SOMERVILLE","lat":-38.2239249,"lon":145.2171844,"precision":"street","reasonCode":"ABCD","auditDate":"Dec-2025"},{"location":"Ernst Wanke Road","suburb":"BERWICK","lat":-38.0151637,"lon":145.3264704,"precision":"street","reasonCode":"B","auditDate":"Apr-2026"},{"location":"Erskine Road","suburb":"MACLEOD","lat":-37.729607,"lon":145.0758716,"precision":"street","reasonCode":"AC","auditDate":"T"},{"location":"Esplanade","suburb":"BRIGHTON","lat":-37.9091465,"lon":144.9865816,"precision":"street","reasonCode":"AC","auditDate":"May-2026"},{"location":"Esplanade","suburb":"ALTONA","lat":-37.875079,"lon":144.8141946,"precision":"street","reasonCode":"B","auditDate":"Dec-2025"},{"location":"Essex Street","suburb":"WEST FOOTSCRAY","lat":-37.7926077,"lon":144.8687246,"precision":"street","reasonCode":"C","auditDate":"Dec-2025"},{"location":"Ester Street","suburb":"GREENSBOROUGH","lat":-37.7053466,"lon":145.0988507,"precision":"street","reasonCode":"BCD","auditDate":"T"},{"location":"Etiwanda Avenue","suburb":"MILDURA","lat":-34.2141529,"lon":142.1473855,"precision":"street","reasonCode":"ABCD","auditDate":"Dec-2025"},{"location":"Eureka Street","suburb":"BALLARAT EAST","lat":-37.5658265,"lon":143.8723257,"precision":"street","reasonCode":"ABC","auditDate":"T"},{"location":"Euroa-Mansfield Road","suburb":"EUROA","lat":-36.8300879,"lon":145.5659211,"precision":"street","reasonCode":"ABC","auditDate":"T"},{"location":"Euroa-Mansfield Road","suburb":"GOORAM","lat":-36.9051699,"lon":145.6335561,"precision":"street","reasonCode":"ABC","auditDate":"T"},{"location":"Euroa-Mansfield Road","suburb":"MERTON","lat":-36.9358846,"lon":145.6667079,"precision":"street","reasonCode":"C","auditDate":"T"},{"location":"Euroa-Shepparton Road","suburb":"EUROA","lat":-36.7468879,"lon":145.5656693,"precision":"street","reasonCode":"C","auditDate":"T"},{"location":"Euroa-Shepparton Road","suburb":"MIEPOLL","lat":-36.6495414,"lon":145.4855243,"precision":"street","reasonCode":"C","auditDate":"T"},{"location":"Everleigh Drive","suburb":"DIAMOND CREEK","lat":-37.6624,"lon":145.1530356,"precision":"street","reasonCode":"BD","auditDate":"T"},{"location":"Exford Road","suburb":"EXFORD","lat":-37.7479446,"lon":144.571903,"precision":"street","reasonCode":"ABCD","auditDate":"Dec-2025"},{"location":"Exford Road","suburb":"MELTON SOUTH","lat":-37.7055879,"lon":144.5745555,"precision":"street","reasonCode":"C","auditDate":"Dec-2025"},{"location":"Eynesbury Road","suburb":"EYNESBURY","lat":-37.7817709,"lon":144.5655474,"precision":"street","reasonCode":"BCD","auditDate":"Mar-2026"},{"location":"Eyre Street","suburb":"ECHUCA","lat":-36.1356173,"lon":144.7449563,"precision":"street","reasonCode":"C","auditDate":"Nov-2025"},{"location":"Fairbairn Road","suburb":"SUNSHINE WEST","lat":-37.807077,"lon":144.8184564,"precision":"street","reasonCode":"BCD","auditDate":"Dec-2025"},{"location":"Fairbank Road","suburb":"CLAYTON SOUTH","lat":-37.9415389,"lon":145.1263179,"precision":"street","reasonCode":"ABCD","auditDate":"Jun-2026"},{"location":"Federation Way","suburb":"BOWSER","lat":-36.2172052,"lon":146.379461,"precision":"street","reasonCode":"ABC","auditDate":"T"},{"location":"Fellmongers Road","suburb":"BREAKWATER","lat":-38.1797138,"lon":144.3770588,"precision":"street","reasonCode":"ABCD","auditDate":"T"},{"location":"Felltimber Creek Road","suburb":"WODONGA","lat":-36.1367339,"lon":146.8629688,"precision":"street","reasonCode":"BC","auditDate":"T"},{"location":"Ferntree Gully Road","suburb":"FERNTREE GULLY","lat":-37.8872876,"lon":145.2651254,"precision":"street","reasonCode":"A","auditDate":"Mar-2026"},{"location":"Ferris Road","suburb":"MELTON SOUTH","lat":-37.7060279,"lon":144.5717723,"precision":"suburb","reasonCode":"C","auditDate":"Dec-2025"},{"location":"Field Street","suburb":"RYE","lat":-38.375636,"lon":144.8321036,"precision":"street","reasonCode":"C","auditDate":"Dec-2025"},{"location":"Fifteenth Street","suburb":"IRYMPLE","lat":-34.2344448,"lon":142.1694239,"precision":"street","reasonCode":"AC","auditDate":"Dec-2025"},{"location":"Finch Street","suburb":"MALVERN EAST","lat":-37.8733349,"lon":145.0429583,"precision":"street","reasonCode":"ABCD","auditDate":"Nov-2025"},{"location":"Findon Road","suburb":"SOUTH MORANG","lat":-37.6442302,"lon":145.0830856,"precision":"street","reasonCode":"BC","auditDate":"T"},{"location":"Findon Road","suburb":"EPPING","lat":-37.6381171,"lon":145.0311936,"precision":"street","reasonCode":"BCD","auditDate":"T"},{"location":"Finlayson Street","suburb":"ROSANNA","lat":-37.7342401,"lon":145.0715293,"precision":"street","reasonCode":"B","auditDate":"T"},{"location":"Fischer Street","suburb":"TORQUAY","lat":-38.3085108,"lon":144.3294543,"precision":"street","reasonCode":"ABCD","auditDate":"T"},{"location":"Fitzgerald Road","suburb":"DERRIMUT","lat":-37.8105139,"lon":144.7876447,"precision":"street","reasonCode":"BCD","auditDate":"Dec-2025"},{"location":"Fitzgerald Road","suburb":"SUNSHINE WEST","lat":-37.7941533,"lon":144.78999,"precision":"street","reasonCode":"BCD","auditDate":"Dec-2025"},{"location":"Fitzsimons Lane","suburb":"TEMPLESTOWE","lat":-37.7502672,"lon":145.1352594,"precision":"street","reasonCode":"AC","auditDate":"May-2026"},{"location":"Flaxen Hills Road","suburb":"DOREEN","lat":-37.5946394,"lon":145.1319606,"precision":"street","reasonCode":"BC","auditDate":"T"},{"location":"Flaxman Street","suburb":"WARRNAMBOOL","lat":-38.390817,"lon":142.5031881,"precision":"street","reasonCode":"ABCD","auditDate":"Sep-2025"},{"location":"Flora Avenue","suburb":"MILDURA","lat":-34.1666267,"lon":142.1355428,"precision":"street","reasonCode":"ABCD","auditDate":"Dec-2025"},{"location":"Ford Road","suburb":"SHEPPARTON","lat":-36.3475375,"lon":145.405878,"precision":"street","reasonCode":"BC","auditDate":"Apr-2026"},{"location":"Forrest Street","suburb":"ALBION","lat":-37.7850705,"lon":144.8245164,"precision":"street","reasonCode":"BC","auditDate":"Dec-2025"},{"location":"Forrest Street","suburb":"ARDEER","lat":-37.782499,"lon":144.799746,"precision":"street","reasonCode":"BC","auditDate":"Dec-2025"},{"location":"Foster Street","suburb":"SALE","lat":-38.1117822,"lon":147.0589587,"precision":"street","reasonCode":"C","auditDate":"T"},{"location":"Fosters Road","suburb":"KEILOR PARK","lat":-37.7248001,"lon":144.8523477,"precision":"street","reasonCode":"BCD","auditDate":"Dec-2025"},{"location":"Fourteenth Street","suburb":"MILDURA","lat":-34.1911555,"lon":142.1385497,"precision":"street","reasonCode":"ABCD","auditDate":"Dec-2025"},{"location":"Fourteenth Street","suburb":"IRYMPLE","lat":-34.2330111,"lon":142.1885956,"precision":"street","reasonCode":"C","auditDate":"Dec-2025"},{"location":"Frankston-Dandenong Road","suburb":"FRANKSTON","lat":-38.1298004,"lon":145.1320899,"precision":"street","reasonCode":"C","auditDate":"Dec-2025"},{"location":"Frankston-Dandenong Road","suburb":"SEAFORD","lat":-38.1258778,"lon":145.1375887,"precision":"street","reasonCode":"C","auditDate":"Dec-2025"},{"location":"Frankston-Dandenong Road","suburb":"BANGHOLME","lat":-38.0561576,"lon":145.2070348,"precision":"street","reasonCode":"C","auditDate":"Apr-2026"},{"location":"Frankston-Flinders Road","suburb":"BITTERN","lat":-38.3373959,"lon":145.1771181,"precision":"street","reasonCode":"ABC","auditDate":"Dec-2025"},{"location":"Frankston-Flinders Road","suburb":"SOMERVILLE","lat":-38.2231293,"lon":145.175073,"precision":"street","reasonCode":"ABC","auditDate":"Dec-2025"},{"location":"Frankston-Flinders Road","suburb":"TYABB","lat":-38.2729332,"lon":145.1898592,"precision":"street","reasonCode":"ABC","auditDate":"Dec-2025"},{"location":"Frawley Road","suburb":"HALLAM","lat":-38.0008785,"lon":145.2677137,"precision":"street","reasonCode":"ABC","auditDate":"Apr-2026"},{"location":"Frost Drive","suburb":"DELAHEY","lat":-37.7239665,"lon":144.773558,"precision":"street","reasonCode":"BCD","auditDate":"Dec-2025"},{"location":"Fryers Road","suburb":"HIGHTON","lat":-38.1857748,"lon":144.3208854,"precision":"street","reasonCode":"BCD","auditDate":"T"},{"location":"Fullarton Road","suburb":"KEILOR PARK","lat":-37.7260135,"lon":144.8546711,"precision":"street","reasonCode":"BCD","auditDate":"Dec-2025"},{"location":"Fulton Road","suburb":"BLACKBURN SOUTH","lat":-37.842481,"lon":145.1423221,"precision":"street","reasonCode":"ACD","auditDate":"May-2026"},{"location":"Furlong Road","suburb":"ST ALBANS","lat":-37.7602878,"lon":144.811502,"precision":"street","reasonCode":"BCD","auditDate":"Dec-2025"},{"location":"Furlong Road","suburb":"SUNSHINE NORTH","lat":-37.7620128,"lon":144.8260058,"precision":"street","reasonCode":"BCD","auditDate":"Dec-2025"},{"location":"Furness Street","suburb":"KANGAROO FLAT","lat":-36.8179032,"lon":144.2336401,"precision":"street","reasonCode":"CD","auditDate":"May-2026"},{"location":"Fyansford-Gheringhap Road","suburb":"GHERINGHAP","lat":-38.0748361,"lon":144.2320795,"precision":"suburb","reasonCode":"BC","auditDate":"T"},{"location":"Gaffney Street","suburb":"PASCOE VALE","lat":-37.7316601,"lon":144.940022,"precision":"street","reasonCode":"C","auditDate":"Jun-2026"},{"location":"Gallaghers Road","suburb":"GLEN WAVERLEY","lat":-37.884736,"lon":145.1772806,"precision":"street","reasonCode":"C","auditDate":"May-2026"},{"location":"Gap Road","suburb":"SUNBURY","lat":-37.5792551,"lon":144.7174731,"precision":"street","reasonCode":"ABC","auditDate":"Nov-2025"},{"location":"Garden Road","suburb":"CLAYTON","lat":-37.9255766,"lon":145.1454351,"precision":"street","reasonCode":"ABC","auditDate":"May-2026"},{"location":"Garden Street","suburb":"PORTLAND","lat":-38.3320131,"lon":141.5997521,"precision":"street","reasonCode":"C","auditDate":"T"},{"location":"Gardenia Street","suburb":"HORSHAM","lat":-36.7226969,"lon":142.1929209,"precision":"street","reasonCode":"AC","auditDate":"Jun-2025"},{"location":"Gateshead Drive","suburb":"WANTIRNA SOUTH","lat":-37.8662749,"lon":145.2412148,"precision":"street","reasonCode":"BCD","auditDate":"Mar-2026"},{"location":"Gayview Drive","suburb":"WODONGA WEST","lat":-36.1211066,"lon":146.856138,"precision":"street","reasonCode":"ABCD","auditDate":"T"},{"location":"Gear Avenue","suburb":"MOUNT HELEN","lat":-37.6301609,"lon":143.8996408,"precision":"street","reasonCode":"BC","auditDate":"T"},{"location":"Geelong Road","suburb":"BANNOCKBURN","lat":-38.0447127,"lon":144.1730041,"precision":"street","reasonCode":"ABCD","auditDate":"Apr-2026"},{"location":"Geelong-Bacchus Marsh Road","suburb":"BACCHUS MARSH","lat":-37.6806216,"lon":144.4344234,"precision":"street","reasonCode":"C","auditDate":"Mar-2026"},{"location":"Geelong-Ballan Road","suburb":"BALLAN","lat":-37.7746855,"lon":144.2166962,"precision":"street","reasonCode":"ABC","auditDate":"Mar-2026"},{"location":"Geelong-Ballan Road","suburb":"BEREMBOKE","lat":-37.7757374,"lon":144.2320356,"precision":"suburb","reasonCode":"ABC","auditDate":"Mar-2026"},{"location":"Geelong-Ballan Road","suburb":"MOUNT WALLACE","lat":-37.7746855,"lon":144.2166962,"precision":"street","reasonCode":"ABC","auditDate":"Apr-2026"},{"location":"George Street","suburb":"SANDRINGHAM","lat":-37.9590062,"lon":145.0289257,"precision":"street","reasonCode":"AC","auditDate":"May-2026"},{"location":"George Street","suburb":"HAMILTON","lat":-37.7457262,"lon":142.034326,"precision":"street","reasonCode":"C","auditDate":"Feb-2026"},{"location":"Gibsons Road","suburb":"SALE","lat":-38.0927408,"lon":147.0850963,"precision":"street","reasonCode":"C","auditDate":"T"},{"location":"Gilbert Road","suburb":"RESERVOIR","lat":-37.7191139,"lon":144.9932648,"precision":"street","reasonCode":"ABCD","auditDate":"T"},{"location":"Gillespie Road","suburb":"KINGS PARK","lat":-37.7324138,"lon":144.765769,"precision":"street","reasonCode":"BCD","auditDate":"Dec-2025"},{"location":"Gillies Road","suburb":"MOUNT ROWAN","lat":-37.4924709,"lon":143.8312186,"precision":"street","reasonCode":"BC","auditDate":"T"},{"location":"Gillies Road","suburb":"ASCOT","lat":-36.707622,"lon":144.33634,"precision":"suburb","reasonCode":"BC","auditDate":"T"},{"location":"Gillies Road","suburb":"BALD HILLS","lat":-37.447638,"lon":143.8381364,"precision":"suburb","reasonCode":"BC","auditDate":"T"},{"location":"Gillies Road","suburb":"SULKY","lat":-37.4793874,"lon":143.8336422,"precision":"street","reasonCode":"BC","auditDate":"T"},{"location":"Gillies Street","suburb":"MARYBOROUGH","lat":-37.0429322,"lon":143.7494877,"precision":"street","reasonCode":"BCD","auditDate":"Nov-2025"},{"location":"Gillwell Road","suburb":"LALOR","lat":-37.6587177,"lon":144.9970877,"precision":"street","reasonCode":"BCD","auditDate":"T"},{"location":"Gisborne - Melton Road","suburb":"KURUNJANG","lat":-37.6712785,"lon":144.5982692,"precision":"street","reasonCode":"BCD","auditDate":"Dec-2025"},{"location":"Gisborne Road","suburb":"COIMADAI","lat":-37.6292112,"lon":144.467337,"precision":"street","reasonCode":"ABCD","auditDate":"Mar-2026"},{"location":"Gisborne Road","suburb":"BACCHUS MARSH","lat":-37.6693729,"lon":144.4371311,"precision":"street","reasonCode":"C","auditDate":"Mar-2026"},{"location":"Gisborne-Melton Road","suburb":"TOOLERN VALE","lat":-37.6092266,"lon":144.5907393,"precision":"street","reasonCode":"ABC","auditDate":"Dec-2025"},{"location":"Gisborne-Melton Road","suburb":"KURUNJANG","lat":-37.6602713,"lon":144.600643,"precision":"street","reasonCode":"ABCD","auditDate":"Dec-2025"},{"location":"Gisborne-Melton Road","suburb":"MELTON","lat":-37.4978041,"lon":144.5856057,"precision":"street","reasonCode":"BC","auditDate":"Dec-2025"},{"location":"Gladesville Boulevard","suburb":"PATTERSON LAKES","lat":-38.0705734,"lon":145.1456827,"precision":"street","reasonCode":"ACD","auditDate":"Jun-2026"},{"location":"Gladstone Road","suburb":"DANDENONG NORTH","lat":-37.9650405,"lon":145.2057585,"precision":"street","reasonCode":"ACD","auditDate":"Apr-2026"},{"location":"Gladstone Street","suburb":"MARYBOROUGH","lat":-37.0345555,"lon":143.740595,"precision":"street","reasonCode":"C","auditDate":"May-2026"},{"location":"Glen Huntly Road","suburb":"ELWOOD","lat":-37.8826099,"lon":144.9861814,"precision":"street","reasonCode":"BC","auditDate":"Nov-2025"},{"location":"Glen Iris Road","suburb":"GLEN IRIS","lat":-37.849794,"lon":145.0680967,"precision":"street","reasonCode":"ABCD","auditDate":"May-2026"},{"location":"Glen Katherine Drive","suburb":"ST HELENA","lat":-37.6926229,"lon":145.132955,"precision":"street","reasonCode":"B","auditDate":"T"},{"location":"Glenbarry Road","suburb":"CAMPBELLFIELD","lat":-37.6635102,"lon":144.9596095,"precision":"street","reasonCode":"BC","auditDate":"Jun-2026"},{"location":"Glencairn Drive","suburb":"GREENVALE","lat":-37.6491998,"lon":144.8894454,"precision":"street","reasonCode":"BC","auditDate":"Nov-2025"},{"location":"Glenelg Highway","suburb":"DUNKELD","lat":-37.6627441,"lon":142.2866723,"precision":"street","reasonCode":"ABC","auditDate":"Feb-2026"},{"location":"Glenelg Highway","suburb":"WICKLIFFE","lat":-37.6948492,"lon":142.7254252,"precision":"street","reasonCode":"AC","auditDate":"Jun-2025"},{"location":"Glenelg Highway","suburb":"LAKE BOLAC","lat":-37.692223,"lon":142.9032533,"precision":"street","reasonCode":"AC","auditDate":"July-2025"},{"location":"Glenelg Highway","suburb":"WARRAYURE","lat":-37.7012742,"lon":142.1957496,"precision":"street","reasonCode":"AC","auditDate":"Feb-2026"},{"location":"Glenelg Highway","suburb":"SMYTHESDALE","lat":-37.6096032,"lon":143.7368776,"precision":"street","reasonCode":"BC","auditDate":"Apr-2026"},{"location":"Glenelg Highway","suburb":"CARRANBALLAC","lat":-37.7009922,"lon":143.2145709,"precision":"street","reasonCode":"C","auditDate":"T"},{"location":"Glenelg Highway","suburb":"SKIPTON","lat":-37.6860929,"lon":143.3734055,"precision":"street","reasonCode":"C","auditDate":"T"},{"location":"Glenelg Highway","suburb":"SMYTHES CREEK","lat":-37.590537,"lon":143.8050283,"precision":"street","reasonCode":"C","auditDate":"T"},{"location":"Glenelg Highway","suburb":"CASTERTON","lat":-37.5808105,"lon":141.4208247,"precision":"street","reasonCode":"C","auditDate":"T"},{"location":"Glenelg Highway","suburb":"STREATHAM","lat":-37.6818305,"lon":143.0705175,"precision":"street","reasonCode":"C","auditDate":"July-2025"},{"location":"Glenelg Highway","suburb":"WESTMERE","lat":-37.6872513,"lon":143.0155726,"precision":"street","reasonCode":"C","auditDate":"July-2025"},